placeid,name,norm,trainline,joinkey,latitude,longitude
364,ABANO TERME,ABANO TERME,ABANO,ABANO,45.3553,11.8115
365,ABBADIA LARIANA,ABBADIA LARIANA,,ABBADIA LARIANA,45.8958,9.33511
366,ABBASANTA,ABBASANTA,,ABBASANTA,40.126767,8.816053
367,ABBIATEGRASSO,ABBIATEGRASSO,,ABBIATEGRASSO,45.3976,8.92041
368,ACATE,ACATE,,ACATE,36.996652,14.42543
369,ACCIANO,ACCIANO,,ACCIANO,42.176344,13.71112
370,ACERRA,ACERRA,,ACERRA,40.939797,14.372879
371,ACIREALE,ACIREALE,,ACIREALE,37.595783,15.161736
372,ACQUA ACETOSA,ACQUA ACETOSA,,ACQUA ACETOSA,41.793727,12.617142
1,ACQUAFREDDA,ACQUAFREDDA,,ACQUAFREDDA,40.034808,15.672432
374,ACQUANEGRA CREMONESE,ACQUANEGRA CREMONESE,,ACQUANEGRA CREMONESE,45.172,9.88856
2,ACQUAPPESA,ACQUAPPESA,,ACQUAPPESA,39.486439,15.955969
5453,ACQUASPARTA,ACQUASPARTA,,ACQUASPARTA,42.6883,12.5498
377,ACQUAVIVA DELLE FONTI,ACQUAVIVA DELLE FONTI,,ACQUAVIVA DELLE FONTI,40.8929,16.8399
376,ACQUAVIVA CASTELTERMINI,ACQUAVIVA CASTELTERMINI,,ACQUAVIVA CASTELTERMINI,37.570415,13.674804
2499,ACQUEDOLCI-S.FRATELLO,ACQUEDOLCI SAN FRATELLO,,ACQUEDOLCI SAN FRATELLO,38.058056,14.5875
188,ACQUI TERME,ACQUI TERME,,ACQUI TERME,44.67228,8.473663
378,ADRIA,ADRIA,,ADRIA,45.060533,12.054148
4,AFRICO NUOVO,AFRICO NUOVO,,AFRICO NUOVO,38.052704,16.143925
379,AGLIANO CASTELNUOVO CALCEA,AGLIANO CASTELNUOVO CALCEA,,AGLIANO CASTELNUOVO CALCEA,44.7861,8.26778
383,AGRIGENTO BASSA,AGRIGENTO BASSA,,AGRIGENTO BASSA,37.319131,13.588031
384,AGRIGENTO CENTRALE,AGRIGENTO CENTRALE,,AGRIGENTO CENTRALE,37.309063,13.584417
5,AGROPOLI CASTELLABATE,AGROPOLI CASTELLABATE,,AGROPOLI CASTELLABATE,40.351534,15.001755
387,AIRASCA,AIRASCA,,AIRASCA,44.928077,7.483348
189,AIROLE,AIROLE,,AIROLE,43.8705,7.55285
388,AIRUNO,AIRUNO,,AIRUNO,45.7555,9.4222
389,ALA,ALA,,ALA,45.7591,10.996496
390,ALANNO,ALANNO,,ALANNO,42.287172,14.019684
391,ALANO FENER VALDOBBIADENE,ALANO FENER VALDOBBIADENE,,ALANO FENER VALDOBBIADENE,45.90257,11.944551
190,ALASSIO,ALASSIO,,ALASSIO,44.007932,8.171383
392,ALBA,ALBA,,ALBA,44.697755,8.030854
393,ALBA ADRIATICA-NERETO-CONTROGUERRA,ALBA ADRIATICA NERETO CONTROGUERRA,,ALBA ADRIATICA NERETO CONTROGUERRA,42.834228,13.917216
394,ALBACINA,ALBACINA,,ALBACINA,43.345589,12.986302
779,ALBAIRATE-VERMEZZO,ALBAIRATE VERMEZZO,ALBAIRATE,ALBAIRATE,45.404476,8.958192
396,ALBANO LAZIALE,ALBANO LAZIALE,,ALBANO LAZIALE,41.726425,12.657899
397,ALBANO S.ALESSANDRO,ALBANO SAN ALESSANDRO,ALBANO SANT ALESSANDRO,ALBANO SANT ALESSANDRO,45.683,9.76758
395,ALBANO DI LUCANIA,ALBANO DI LUCANIA,,ALBANO DI LUCANIA,40.574691,16.021321
398,ALBANOVA,ALBANOVA,,ALBANOVA,40.996195,14.128768
399,ALBAREDO,ALBAREDO,,ALBAREDO,45.670262,12.014442
401,ALBATE-TRECALLO,ALBATE TRECALLO,,ALBATE TRECALLO,45.7775,9.095556
191,ALBENGA,ALBENGA,,ALBENGA,44.047305,8.221552
404,ALBINIA,ALBINIA,,ALBINIA,42.502302,11.211364
192,ALBISOLA,ALBISOLA,,ALBISOLA,44.334636,8.511652
405,ALBIZZATE SOLBIATE ARNO,ALBIZZATE SOLBIATE ARNO,,ALBIZZATE SOLBIATE ARNO,45.7233,8.80613
406,ALBONESE,ALBONESE,,ALBONESE,45.297911,8.714655
407,ALBUZZANO,ALBUZZANO,,ALBUZZANO,45.1726,9.26165
409,ALCAMO DIRAMAZIONE,ALCAMO DIRAMAZIONE,,ALCAMO DIRAMAZIONE,37.978939,12.915871
410,ALCANTARA,ALCANTARA,,ALCANTARA,37.821448,15.251152
193,ALESSANDRIA,ALESSANDRIA,,ALESSANDRIA,44.908606,8.606847
411,ALFEDENA-SCONTRONE,ALFEDENA SCONTRONE,,ALFEDENA SCONTRONE,41.738524,14.044683
412,ALFONSINE,ALFONSINE,,ALFONSINE,44.511714,12.039954
413,ALI' TERME,ALI TERME,,ALI TERME,38.005151,15.423583
414,ALICE BELCOLLE,ALICE BELCOLLE,,ALICE BELCOLLE,44.722619,8.43999
415,ALLERONA-CASTEL VISCARDO,ALLERONA CASTEL VISCARDO,,ALLERONA CASTEL VISCARDO,42.784761,12.035836
416,ALPIGNANO,ALPIGNANO,,ALPIGNANO,45.090818,7.523
418,ALTAMURA,ALTAMURA,,ALTAMURA,40.837697,16.551765
196,ALTARE,ALTARE,,ALTARE,44.336227,8.332604
419,ALTAVILLA IRPINA,ALTAVILLA IRPINA,,ALTAVILLA IRPINA,41.015108,14.784954
420,ALTAVILLA MILICIA,ALTAVILLA MILICIA,,ALTAVILLA MILICIA,38.048291,13.554402
421,ALTAVILLA TAVERNELLE,ALTAVILLA TAVERNELLE,,ALTAVILLA TAVERNELLE,45.511,11.453533
422,ALTOPASCIO,ALTOPASCIO,,ALTOPASCIO,43.81737,10.672532
423,ALVIANO,ALVIANO,,ALVIANO,42.591789,12.259623
8,AMANTEA,AMANTEA,,AMANTEA,39.134799,16.068254
424,AMBIVERE MAPELLO,AMBIVERE MAPELLO,,AMBIVERE MAPELLO,45.7222,9.55026
9,AMENDOLARA ORIOLO,AMENDOLARA ORIOLO,,AMENDOLARA ORIOLO,39.93385,16.602941
427,AMOROSI MELIZZANO,AMOROSI MELIZZANO,,AMOROSI MELIZZANO,41.192798,14.479257
428,ANAGNI-FIUGGI,ANAGNI FIUGGI,,ANAGNI FIUGGI,41.710316,13.095988
429,ANCONA,ANCONA,,ANCONA,43.607597,13.497797
1096,ANCONA STADIO,ANCONA STADIO,,ANCONA STADIO,43.566339,13.520671
3473,ANCONA TORRETTE,ANCONA TORRETTE,,ANCONA TORRETTE,43.610141,13.455611
3365,ANCONETTA,ANCONETTA,,ANCONETTA,45.565808,11.567921
431,ANGRI,ANGRI,,ANGRI,40.746304,14.575343
432,ANGUILLARA,ANGUILLARA,,ANGUILLARA,42.067305,12.294168
3466,ANNONE VENETO,ANNONE VENETO,,ANNONE VENETO,45.774996,12.680102
1310,ANNA',ANNA,,ANNA,37.925717,15.748215
434,ANTIGNANO,ANTIGNANO,,ANTIGNANO,43.495349,10.329225
436,ANTRODOCO CENTRO,ANTRODOCO CENTRO,,ANTRODOCO CENTRO,42.421767,13.081776
435,ANTRODOCO BORGO VELINO,ANTRODOCO BORGO VELINO,,ANTRODOCO BORGO VELINO,42.409983,13.071196
437,ANVERSA-VILLALAGO-SCANNO,ANVERSA VILLALAGO SCANNO,,ANVERSA VILLALAGO SCANNO,42.017558,13.835729
438,ANZANO DEL PARCO,ANZANO DEL PARCO,,ANZANO DEL PARCO,45.7651,9.20272
439,ANZIO,ANZIO,,ANZIO,41.45211,12.629331
441,ANZOLA DELL'EMILIA,ANZOLA DELL EMILIA,,ANZOLA DELL EMILIA,44.551528,11.196037
442,AOSTA,AOSTA,,AOSTA,45.734202,7.322433
3501,AOSTA ISTITUTO,AOSTA ISTITUTO,,AOSTA ISTITUTO,45.731757,7.30698
3502,AOSTA VIALE EUROPA,AOSTA VIALE EUROPA,,AOSTA VIALE EUROPA,45.73245,7.296058
443,APICE S.ARCANGELO BONITO,APICE SAN ARCANGELO BONITO,APICE SANT ARCANGELO BONITO,APICE SANT ARCANGELO BONITO,41.140936,14.918528
444,APRICENA,APRICENA,,APRICENA,41.77849,15.382017
445,APRILIA,APRILIA,,APRILIA,41.592396,12.639183
448,ARAGONA CALDARE,ARAGONA CALDARE,,ARAGONA CALDARE,37.381057,13.63686
449,ARBIA,ARBIA,,ARBIA,43.29444,11.406151
450,ARCE,ARCE,,ARCE,41.583442,13.572551
3594,ARCENE,ARCENE,,ARCENE,45.5747,9.60544
451,ARCISATE,ARCISATE,,ARCISATE,45.8586,8.86246
452,ARCOLA,ARCOLA,,ARCOLA,44.120549,9.913456
453,ARCORE,ARCORE,,ARCORE,45.6238,9.32292
455,ARDENNO MASINO,ARDENNO MASINO,,ARDENNO MASINO,46.1617,9.65042
10,ARDORE,ARDORE,,ARDORE,38.175776,16.207254
457,ARENA PO,ARENA PO,,ARENA PO,45.082017,9.360359
198,ARENZANO,ARENZANO,,ARENZANO,44.403107,8.678276
458,AREZZO,AREZZO,,AREZZO,43.461073,11.875388
459,ARGENTA,ARGENTA,,ARGENTA,44.616223,11.843054
460,ARIANO IRPINO,ARIANO IRPINO,,ARIANO IRPINO,41.181984,15.117438
461,ARONA,ARONA,,ARONA,45.755498,8.559133
462,ARPINO,ARPINO,,ARPINO,41.648722,13.599429
463,ARQUA',ARQUA,,ARQUA,45.007074,11.748892
199,ARQUATA SCRIVIA,ARQUATA SCRIVIA,,ARQUATA SCRIVIA,44.692263,8.885342
464,ARSOLI,ARSOLI,,ARSOLI,42.045838,13.013081
465,ARTEGNA,ARTEGNA,,ARTEGNA,46.229014,13.161268
466,ARVIER,ARVIER,,ARVIER,45.704286,7.166551
11,ASCEA,ASCEA,,ASCEA,40.141222,15.172631
467,ASCIANO,ASCIANO,,ASCIANO,43.235651,11.579958
468,ASCIANO MONTE OLIVETO MAGGIORE,ASCIANO MONTE OLIVETO MAGGIORE,,ASCIANO MONTE OLIVETO MAGGIORE,43.231667,11.563333
469,ASCOLI PICENO,ASCOLI PICENO,,ASCOLI PICENO,42.855434,13.58795
470,ASCOLI SATRIANO,ASCOLI SATRIANO,,ASCOLI SATRIANO,41.219712,15.547625
472,ASOLA,ASOLA,,ASOLA,45.2204,10.4025
473,ASSEMINI,ASSEMINI,,ASSEMINI,39.287382,8.998984
3052,ASSEMINI CARMINE,ASSEMINI CARMINE,,ASSEMINI CARMINE,39.281736,9.014032
3051,ASSEMINI S.LUCIA,ASSEMINI SAN LUCIA,ASSEMINI SANTA LUCIA,ASSEMINI SANTA LUCIA,39.291,8.98938
474,ASSISI,ASSISI,,ASSISI,43.058887,12.585113
475,ASTI,ASTI,,ASTI,44.89479,8.207582
476,ATTIGLIANO-BOMARZO,ATTIGLIANO BOMARZO,,ATTIGLIANO BOMARZO,42.517476,12.295894
480,AUGUSTA,AUGUSTA,,AUGUSTA,37.243387,15.218962
3587,AULLA LUNIGIANA,AULLA LUNIGIANA,,AULLA LUNIGIANA,44.218351,9.97746
483,AVELLINO,AVELLINO,,AVELLINO,40.921135,14.820614
484,AVERSA,AVERSA,,AVERSA,40.973488,14.218426
485,AVEZZANO,AVEZZANO,,AVEZZANO,42.039555,13.426495
486,AVIANO,AVIANO,,AVIANO,46.064466,12.59075
487,AVIGLIANA,AVIGLIANA,,AVIGLIANA,45.083168,7.403524
488,AVIGLIANO LUCANIA,AVIGLIANO LUCANIA,,AVIGLIANO LUCANIA,40.71495,15.785552
489,AVIO,AVIO,,AVIO,45.733645,10.95536
490,AVISE,AVISE,,AVISE,45.706435,7.131583
491,AVOLA,AVOLA,,AVOLA,36.907586,15.125762
564,BADESSE,BADESSE,,BADESSE,43.385546,11.273003
565,BADIA POLESINE,BADIA POLESINE,,BADIA POLESINE,45.09444,11.484735
12,BADOLATO,BADOLATO,,BADOLATO,38.572146,16.56773
566,BAGHERIA,BAGHERIA,,BAGHERIA,38.089803,13.507344
567,BAGNACAVALLO,BAGNACAVALLO,,BAGNACAVALLO,44.412204,11.969649
13,BAGNARA,BAGNARA,,BAGNARA,38.282675,15.800429
569,BAGNASCO,BAGNASCO,,BAGNASCO,44.303056,8.045833
570,BAGNI DI LUCCA,BAGNI DI LUCCA,,BAGNI DI LUCCA,44.003419,10.55169
572,BAGNI DI TIVOLI,BAGNI DI TIVOLI,,BAGNI DI TIVOLI,41.949618,12.722235
573,BAGNOLI AGNANO TERME,BAGNOLI AGNANO TERME,,BAGNOLI AGNANO TERME,40.819476,14.166918
576,BAGNOLO MELLA,BAGNOLO MELLA,,BAGNOLO MELLA,45.4284,10.1837
577,BAIANO DI SPOLETO,BAIANO DI SPOLETO,,BAIANO DI SPOLETO,42.72972,12.679491
5043,BALANGERO,BALANGERO,,BALANGERO,45.2652,7.51953
578,BALDICHIERI-TIGLIOLE,BALDICHIERI TIGLIOLE,,BALDICHIERI TIGLIOLE,44.899185,8.091208
579,BALESTRATE,BALESTRATE,,BALESTRATE,38.053351,13.007364
580,BALSORANO,BALSORANO,,BALSORANO,41.809332,13.556748
3348,BALVANO RICIGLIANO,BALVANO RICIGLIANO,,BALVANO RICIGLIANO,40.649832,15.495461
581,BALZOLA,BALZOLA,,BALZOLA,45.174103,8.400824
583,BANDITO,BANDITO,,BANDITO,44.722089,7.819455
584,BARAGIANO-RUOTI,BARAGIANO RUOTI,,BARAGIANO RUOTI,40.694796,15.570107
585,BARANELLO,BARANELLO,,BARANELLO,41.517965,14.596423
588,BARBIANELLO,BARBIANELLO,,BARBIANELLO,45.0724,9.20557
589,BARBIANO,BARBIANO,,BARBIANO,44.384841,11.879217
591,BARCELLONA-CASTROREALE,BARCELLONA CASTROREALE,,BARCELLONA CASTROREALE,38.154732,15.20101
593,BARDONECCHIA,BARDONECCHIA,,BARDONECCHIA,45.076464,6.709744
594,BARGA GALLICANO,BARGA GALLICANO,,BARGA GALLICANO,44.067989,10.451955
595,BARI CENTRALE,BARI CENTRALE,,BARI CENTRALE,41.117702,16.870172
555,BARI PALESE MACCHIE,BARI PALESE MACCHIE,,BARI PALESE MACCHIE,41.148445,16.769349
557,BARI PARCO SUD,BARI PARCO SUD,,BARI PARCO SUD,41.115094,16.898021
560,BARI S.SPIRITO,BARI SAN SPIRITO,BARI SANTO SPIRITO,BARI SANTO SPIRITO,41.159772,16.746409
2699,BARI TORRE QUETTA,BARI TORRE QUETTA,,BARI TORRE QUETTA,41.111566,16.91585
562,BARI TORRE A MARE,BARI TORRE A MARE,,BARI TORRE A MARE,41.082545,16.995833
2468,BARI VILLAGGIO DEL LAVORATORE,BARI VILLAGGIO DEL LAVORATORE,,BARI VILLAGGIO DEL LAVORATORE,41.104234,16.822596
596,BARICETTA,BARICETTA,,BARICETTA,45.060847,11.995547
597,BARILE,BARILE,,BARILE,40.943024,15.670993
598,BARLETTA,BARLETTA,,BARLETTA,41.315402,16.278628
599,BARONISSI,BARONISSI,,BARONISSI,40.745872,14.772503
601,BASILIANO,BASILIANO,,BASILIANO,46.012769,13.110056
604,BASSANO ROMANO,BASSANO ROMANO,,BASSANO ROMANO,42.2124,12.1525
602,BASSANO DEL GRAPPA,BASSANO DEL GRAPPA,,BASSANO DEL GRAPPA,45.766357,11.741593
605,BASTIA,BASTIA,,BASTIA,43.07178,12.54728
608,BATTAGLIA TERME,BATTAGLIA TERME,,BATTAGLIA TERME,45.291484,11.778403
14,BATTIPAGLIA,BATTIPAGLIA,,BATTIPAGLIA,40.605892,14.983256
610,BAVENO,BAVENO,,BAVENO,45.909213,8.502105
611,BAZZANA,BAZZANA,,BAZZANA,44.777256,8.401192
3179,BAZZANO,BAZZANO,BAZZANO EMILIA ROMAGNA,BAZZANO EMILIA ROMAGNA,44.5087,11.0782
612,BEAULARD,BEAULARD,,BEAULARD,45.044352,6.759124
613,BEFFI,BEFFI,,BEFFI,42.197433,13.660511
614,BEINETTE,BEINETTE,,BEINETTE,44.367778,7.644722
615,BELGIOIOSO,BELGIOIOSO,,BELGIOIOSO,45.1645,9.31678
616,BELGIRATE,BELGIRATE,,BELGIRATE,45.843134,8.571142
617,BELLA MURO,BELLA MURO,,BELLA MURO,40.70089,15.542951
618,BELLANO TARTAVALLE TERME,BELLANO TARTAVALLE TERME,,BELLANO TARTAVALLE TERME,46.0395,9.30256
619,BELLANTE RIPATTONE,BELLANTE RIPATTONE,,BELLANTE RIPATTONE,42.702051,13.837526
620,BELLARIA,BELLARIA,,BELLARIA,44.1502,12.4609
623,BELLINZAGO,BELLINZAGO,,BELLINZAGO,45.565897,8.627513
624,BELLISIO SOLFARE,BELLISIO SOLFARE,,BELLISIO SOLFARE,43.520132,12.823696
625,BELLUNO,BELLUNO,,BELLUNO,46.141504,12.208987
15,BELMONTE CALABRO,BELMONTE CALABRO,,BELMONTE CALABRO,39.163061,16.064514
16,BELVEDERE MARITTIMO,BELVEDERE MARITTIMO,,BELVEDERE MARITTIMO,39.616962,15.852872
626,BENEVENTO,BENEVENTO,,BENEVENTO,41.141739,14.770112
670,BENEVENTO PORTA RUFINA,BENEVENTO PORTA RUFINA,,BENEVENTO PORTA RUFINA,41.1235,14.7843
629,BERCETO,BERCETO,,BERCETO,44.556184,9.932028
630,BERCHIDDA,BERCHIDDA,,BERCHIDDA,40.772031,9.181438
631,BERGAMASCO,BERGAMASCO,,BERGAMASCO,44.8199,8.46122
632,BERGAMO,BERGAMO,,BERGAMO,45.690344,9.675125
633,BERNALDA,BERNALDA,,BERNALDA,40.397558,16.682298
634,BESANA,BESANA,,BESANA,45.7028,9.28304
635,BESNATE,BESNATE,,BESNATE,45.696151,8.760572
636,BESOZZO,BESOZZO,,BESOZZO,45.842567,8.663264
200,BEVERA,BEVERA,,BEVERA,43.8253,7.57911
638,BEVILACQUA,BEVILACQUA,,BEVILACQUA,45.230222,11.396659
639,BIAGIONI LAGACCI,BIAGIONI LAGACCI,,BIAGIONI LAGACCI,44.086156,10.948169
17,BIANCO,BIANCO,,BIANCO,38.088913,16.153354
640,BIANZE',BIANZE,,BIANZE,45.309489,8.115461
641,BIANZONE,BIANZONE,,BIANZONE,46.1795,10.1125
642,BIASSONO-LESMO PARCO,BIASSONO LESMO PARCO,BIASSONO LESMO,BIASSONO LESMO,45.631944,9.298056
646,BIBIANA,BIBIANA,,BIBIANA,44.8097,7.28715
647,BICOCCA,BICOCCA,,BICOCCA,37.460935,15.044922
649,BIELLA S.PAOLO,BIELLA SAN PAOLO,,BIELLA SAN PAOLO,45.557331,8.067584
652,BISCEGLIE,BISCEGLIE,,BISCEGLIE,41.235542,16.499619
653,BISTAGNO,BISTAGNO,,BISTAGNO,44.659353,8.372076
654,BISUSCHIO-VIGGIU',BISUSCHIO VIGGIU,,BISUSCHIO VIGGIU,45.87071,8.887561
655,BITETTO PALO DEL COLLE,BITETTO PALO DEL COLLE,,BITETTO PALO DEL COLLE,41.0457,16.7438
520,BIVIO D'AURISINA,BIVIO D AURISINA,,BIVIO D AURISINA,45.754132,13.656358
213,BOGLIASCO,BOGLIASCO,,BOGLIASCO,44.379142,9.066097
681,BOIANO,BOIANO,,BOIANO,41.488534,14.473486
682,BOLGHERI,BOLGHERI,,BOLGHERI,43.244865,10.550504
672,BOLOGNA BORGO PANIGALE,BOLOGNA BORGO PANIGALE,,BOLOGNA BORGO PANIGALE,44.515013,11.284824
683,BOLOGNA CENTRALE,BOLOGNA CENTRALE,,BOLOGNA CENTRALE,44.506141,11.343406
673,BOLOGNA CORTICELLA,BOLOGNA CORTICELLA,,BOLOGNA CORTICELLA,44.55204,11.353987
1709,BOLOGNA MAZZINI,BOLOGNA MAZZINI,,BOLOGNA MAZZINI,44.482441,11.376229
679,BOLOGNA S.RUFFILLO,BOLOGNA SAN RUFFILLO,,BOLOGNA SAN RUFFILLO,44.462723,11.373116
2003,BOLOGNA S.VITALE,BOLOGNA SAN VITALE,,BOLOGNA SAN VITALE,44.4961,11.3728
2003,BOLOGNA S.VITALE,BOLOGNA SAN VITALE,,BOLOGNA SAN VITALE,44.4961,11.3728
686,BOLZANO NOVARESE,BOLZANO NOVARESE,,BOLZANO NOVARESE,45.764685,8.441194
687,BOLZANO SUD,BOLZANO SUD,BOLZANO SUD BOZEN SUD,BOLZANO SUD BOZEN SUD,46.473511,11.326444
685,BOLZANO,BOLZANO,BOLZANO BOZEN,BOLZANO BOZEN,46.49638,11.358787
214,BONASSOLA,BONASSOLA,,BONASSOLA,44.184876,9.582698
689,BONEFRO S.CROCE,BONEFRO SAN CROCE,BONEFRO SANTA CROCE,BONEFRO SANTA CROCE,41.710936,14.860346
690,BONFERRARO,BONFERRARO,,BONFERRARO,45.185717,11.009736
691,BONORVA,BONORVA,,BONORVA,40.417703,8.760635
215,BORDIGHERA,BORDIGHERA,,BORDIGHERA,43.778321,7.663573
5035,BORGARO,BORGARO,,BORGARO,45.153232,7.648673
693,BORGHETTO PARMENSE,BORGHETTO PARMENSE,,BORGHETTO PARMENSE,44.8371,10.1176
216,BORGHETTO S.SPIRITO,BORGHETTO SAN SPIRITO,BORGHETTO SANTO SPIRITO,BORGHETTO SANTO SPIRITO,44.108737,8.242038
694,BORGHETTO SULL'ADIGE,BORGHETTO SULL ADIGE,,BORGHETTO SULL ADIGE,45.696924,10.927179
217,BORGIO VEREZZI,BORGIO VEREZZI,,BORGIO VEREZZI,44.15807,8.310581
695,BORGO,BORGO,,BORGO,40.845906,14.784207
218,BORGO FORNARI PER VOLTAGGIO,BORGO FORNARI PER VOLTAGGIO,,BORGO FORNARI PER VOLTAGGIO,44.58895,8.938181
698,BORGO LAVEZZARO,BORGO LAVEZZARO,,BORGO LAVEZZARO,45.318595,8.703427
699,BORGO REVEL,BORGO REVEL,,BORGO REVEL,45.189501,8.02591
700,BORGO S.DALMAZZO,BORGO SAN DALMAZZO,,BORGO SAN DALMAZZO,44.326213,7.486198
701,BORGO S.LORENZO,BORGO SAN LORENZO,,BORGO SAN LORENZO,43.959831,11.380235
703,BORGO S.MARTINO,BORGO SAN MARTINO,,BORGO SAN MARTINO,45.086961,8.520749
704,BORGO TICINO,BORGO TICINO,,BORGO TICINO,45.691809,8.602461
705,BORGO VAL DI TARO,BORGO VAL DI TARO,,BORGO VAL DI TARO,44.486563,9.781333
706,BORGO VALSUGANA CENTRO,BORGO VALSUGANA CENTRO,,BORGO VALSUGANA CENTRO,46.051226,11.453741
3503,BORGO VALSUGANA EST,BORGO VALSUGANA EST,,BORGO VALSUGANA EST,46.052304,11.463889
707,BORGO VERCELLI,BORGO VERCELLI,,BORGO VERCELLI,45.359532,8.461618
696,BORGO A BUGGIANO,BORGO A BUGGIANO,,BORGO A BUGGIANO,43.880816,10.730225
697,BORGO A MOZZANO,BORGO A MOZZANO,,BORGO A MOZZANO,43.977225,10.541227
1547,BORGOCHIESANUOVA,BORGOCHIESANUOVA,,BORGOCHIESANUOVA,45.141587,10.766156
709,BORGOFRANCO,BORGOFRANCO,,BORGOFRANCO,45.514821,7.85472
710,BORGOLOMBARDO,BORGOLOMBARDO,,BORGOLOMBARDO,45.402806,9.272266
711,BORGOMANERO,BORGOMANERO,,BORGOMANERO,45.700781,8.467847
712,BORGONE,BORGONE,,BORGONE,45.125354,7.236127
713,BORGONUOVO,BORGONUOVO,,BORGONUOVO,44.443711,11.275124
714,BORGORATTO,BORGORATTO,,BORGORATTO,44.837969,8.538134
715,BORGOSESIA,BORGOSESIA,,BORGOSESIA,45.716386,8.283308
716,BORORE,BORORE,,BORORE,40.218907,8.809599
717,BOSCHI S.ANNA,BOSCHI SAN ANNA,BOSCHI SANT ANNA,BOSCHI SANT ANNA,45.217044,11.361717
5023,BOSCONERO,BOSCONERO,,BOSCONERO,45.267761,7.76161
21,BOTRICELLO,BOTRICELLO,,BOTRICELLO,38.934061,16.857578
22,BOVA MARINA,BOVA MARINA,,BOVA MARINA,37.930469,15.924067
23,BOVALINO,BOVALINO,,BOVALINO,38.149123,16.180628
722,BOVINO DELICETO,BOVINO DELICETO,,BOVINO DELICETO,41.278286,15.369127
724,BOVOLONE,BOVOLONE,,BOVOLONE,45.254511,11.124438
725,BOZZOLO,BOZZOLO,,BOZZOLO,45.1072,10.4728
727,BRA,BRA,,BRA,44.6937,7.84922
728,BRACCIANO,BRACCIANO,,BRACCIANO,42.103675,12.173048
3437,BRAGNO,BRAGNO,,BRAGNO,44.368471,8.297484
24,BRANCALEONE,BRANCALEONE,,BRANCALEONE,37.965491,16.103276
729,BRANDIZZO,BRANDIZZO,,BRANDIZZO,45.178669,7.840625
731,BRENNA-ALZATE,BRENNA ALZATE,,BRENNA ALZATE,45.7541,9.1833
732,BRENNERO,BRENNERO,BRENNERO BRENNER,BRENNERO BRENNER,47.002338,11.505428
734,BRESCIA,BRESCIA,,BRESCIA,45.532161,10.212869
736,BRESSANA ARGINE,BRESSANA ARGINE,,BRESSANA ARGINE,45.0729,9.13702
737,BRESSANA BOTTARONE,BRESSANA BOTTARONE,,BRESSANA BOTTARONE,45.086512,9.110693
738,BRESSANONE,BRESSANONE,BRESSANONE BRIXEN,BRESSANONE BRIXEN,46.709892,11.649768
25,BRIATICO,BRIATICO,,BRIATICO,38.725682,16.025483
740,BRICHERASIO,BRICHERASIO,,BRICHERASIO,44.8256,7.30837
741,BRINDISI,BRINDISI,,BRINDISI,40.63428,17.939304
743,BRIONA,BRIONA,,BRIONA,45.53866,8.47832
744,BRISIGHELLA,BRISIGHELLA,,BRISIGHELLA,44.220608,11.769864
745,BROLO FICARRA,BROLO FICARRA,,BROLO FICARRA,38.159074,14.830232
746,BRONI,BRONI,,BRONI,45.066304,9.258763
747,BRONZOLO,BRONZOLO,BRONZOLO BRANZOLL,BRONZOLO BRANZOLL,46.405121,11.315971
748,BROZOLO,BROZOLO,,BROZOLO,45.121389,8.058889
750,BRUCOLI,BRUCOLI,,BRUCOLI,37.273,15.1869
751,BRUNICO,BRUNICO,BRUNICO NORD BRUNECK NORD,BRUNICO NORD BRUNECK NORD,46.800626,11.936479
1967,BRUNICO NORD,BRUNICO NORD,BRUNICO NORD BRUNECK NORD,BRUNICO NORD BRUNECK NORD,46.800626,11.936479
752,BRUNO,BRUNO,,BRUNO,44.7979,8.43918
753,BRUZOLO DI SUSA,BRUZOLO DI SUSA,,BRUZOLO DI SUSA,45.130972,7.202499
754,BUCCINO S.GREGORIO MAGNO,BUCCINO SAN GREGORIO MAGNO,,BUCCINO SAN GREGORIO MAGNO,40.6009,15.3742
755,BUCINE,BUCINE,,BUCINE,43.480472,11.617793
756,BUDOIA POLCENIGO,BUDOIA POLCENIGO,,BUDOIA POLCENIGO,46.030685,12.533965
757,BUGNARA,BUGNARA,,BUGNARA,42.031249,13.862193
758,BUONCONVENTO,BUONCONVENTO,,BUONCONVENTO,43.135349,11.483998
760,BURONZO,BURONZO,,BURONZO,45.4719,8.26661
2386,BUSA DI VIGONZA,BUSA DI VIGONZA,,BUSA DI VIGONZA,45.429943,11.951722
219,BUSALLA,BUSALLA,,BUSALLA,44.575529,8.943691
761,BUSCA,BUSCA,,BUSCA,44.520278,7.481667
762,BUSCHE LENTIAI MEL,BUSCHE LENTIAI MEL,,BUSCHE LENTIAI MEL,46.040096,11.979285
763,BUSSETO,BUSSETO,,BUSSETO,44.974857,10.038775
764,BUSSI,BUSSI,,BUSSI,42.194152,13.849284
765,BUSSOLENO,BUSSOLENO,,BUSSOLENO,45.139638,7.143574
766,BUSTO ARSIZIO,BUSTO ARSIZIO,,BUSTO ARSIZIO,45.615904,8.865791
768,BUTTAFAVA,BUTTAFAVA,,BUTTAFAVA,45.6214,9.30122
769,BUTTAPIETRA,BUTTAPIETRA,,BUTTAPIETRA,45.338794,10.988135
770,BUTTRIO,BUTTRIO,,BUTTRIO,46.012437,13.329447
785,CADEO,CADEO,,CADEO,44.96753,9.852779
787,CAGLIARI,CAGLIARI,,CAGLIARI,39.216097,9.108041
788,CAGLIARI ELMAS,CAGLIARI ELMAS,,CAGLIARI ELMAS,39.26427,9.045557
3164,CAGLIARI S.GILLA,CAGLIARI SAN GILLA,CAGLIARI SANTA GILLA,CAGLIARI SANTA GILLA,39.226336,9.097595
790,CAIRO MONTENOTTE,CAIRO MONTENOTTE,,CAIRO MONTENOTTE,44.394019,8.278903
791,CALA SABINA,CALA SABINA,,CALA SABINA,41.010759,9.587726
792,CALALZO PIEVE CADORE CORTINA,CALALZO PIEVE CADORE CORTINA,CALALZO PIEVE DI CADORE CORTINA,CALALZO PIEVE DI CADORE CORTINA,46.444036,12.388771
793,CALAMANDRANA,CALAMANDRANA,,CALAMANDRANA,44.739,8.33162
794,CALATABIANO,CALATABIANO,,CALATABIANO,37.814391,15.225865
795,CALATAFIMI,CALATAFIMI,,CALATAFIMI,37.938829,12.856057
797,CALCERANICA,CALCERANICA,,CALCERANICA,46.007412,11.240777
799,CIVIDATE-CALCIO,CIVIDATE CALCIO,CALCIO,CALCIO,45.5328,9.84164
801,CALDE',CALDE,,CALDE,45.945683,8.66347
3537,CALDERARA-BARGELLINO,CALDERARA BARGELLINO,,CALDERARA BARGELLINO,44.544121,11.267457
802,PC CALDIERO,PC CALDIERO,CALDIERO,CALDIERO,45.414079,11.169798
803,CALDONAZZO,CALDONAZZO,,CALDONAZZO,45.99755,11.264535
804,CALENZANO,CALENZANO,,CALENZANO,43.856338,11.145311
807,CALOLZIOCORTE OLGINATE,CALOLZIOCORTE OLGINATE,,CALOLZIOCORTE OLGINATE,45.801235,9.4275
26,CALOPEZZATI,CALOPEZZATI,,CALOPEZZATI,39.579001,16.819203
809,CALTAGIRONE,CALTAGIRONE,,CALTAGIRONE,37.224843,14.526963
772,CALTANISSETTA CENTRALE,CALTANISSETTA CENTRALE,,CALTANISSETTA CENTRALE,37.488218,14.057385
773,CALTANISSETTA XIRBI,CALTANISSETTA XIRBI,,CALTANISSETTA XIRBI,37.536283,14.056899
810,CALTIGNAGA,CALTIGNAGA,,CALTIGNAGA,45.519333,8.591934
811,CALUSCO,CALUSCO,,CALUSCO,45.6843,9.47076
812,CALUSO,CALUSO,,CALUSO,45.302972,7.902551
813,CALVISANO,CALVISANO,,CALVISANO,45.3466,10.3492
814,CAMAIORE LIDO CAPEZZANO,CAMAIORE LIDO CAPEZZANO,,CAMAIORE LIDO CAPEZZANO,43.911837,10.247747
817,CAMBIANO SANTENA,CAMBIANO SANTENA,,CAMBIANO SANTENA,44.966389,7.773502
2439,CAMERANO ASPIO,CAMERANO ASPIO,,CAMERANO ASPIO,43.529484,13.520742
818,CAMMARATA S.GIOVANNI GEMINI,CAMMARATA SAN GIOVANNI GEMINI,,CAMMARATA SAN GIOVANNI GEMINI,37.6537,13.6736
819,CAMNAGO-LENTATE,CAMNAGO LENTATE,,CAMNAGO LENTATE,45.666199,9.133292
221,CAMOGLI S.FRUTTUOSO,CAMOGLI SAN FRUTTUOSO,,CAMOGLI SAN FRUTTUOSO,44.34803,9.156681
820,CAMPAGNA SERRE PERSANO,CAMPAGNA SERRE PERSANO,,CAMPAGNA SERRE PERSANO,40.5954,15.1134
822,CAMPELLO SUL CLITUNNO,CAMPELLO SUL CLITUNNO,,CAMPELLO SUL CLITUNNO,42.827235,12.761221
823,CAMPIGLIA MARITTIMA,CAMPIGLIA MARITTIMA,,CAMPIGLIA MARITTIMA,43.017168,10.586434
222,CAMPO LIGURE-MASONE,CAMPO LIGURE MASONE,,CAMPO LIGURE MASONE,44.530888,8.700937
2174,CAMPO DI CARNE,CAMPO DI CARNE,,CAMPO DI CARNE,41.552115,12.635183
824,CAMPO DI GIOVE,CAMPO DI GIOVE,,CAMPO DI GIOVE,42.0081,14.0415
771,CAMPO DI GIOVE-MONTE MAIELLA,CAMPO DI GIOVE MONTE MAIELLA,,CAMPO DI GIOVE MONTE MAIELLA,41.993272,14.069079
826,CAMPO DI TRENS,CAMPO DI TRENS,CAMPO DI TRENS FREIENFELD,CAMPO DI TRENS FREIENFELD,46.869073,11.488456
827,CAMPOBASSO,CAMPOBASSO,,CAMPOBASSO,41.5582,14.6639
829,CAMPOBELLO RAVANUSA,CAMPOBELLO RAVANUSA,,CAMPOBELLO RAVANUSA,37.265582,13.94635
828,CAMPOBELLO DI MAZARA,CAMPOBELLO DI MAZARA,,CAMPOBELLO DI MAZARA,37.63627,12.733175
831,CAMPODARSEGO,CAMPODARSEGO,,CAMPODARSEGO,45.50576,11.90089
832,CAMPOFELICE,CAMPOFELICE,,CAMPOFELICE,37.992638,13.876863
833,CAMPOFRANCO,CAMPOFRANCO,,CAMPOFRANCO,37.510043,13.68675
835,CAMPOLEONE,CAMPOLEONE,,CAMPOLEONE,41.642304,12.648388
836,CAMPOLIETO MONACILIONI,CAMPOLIETO MONACILIONI,CAMPOLIETO MONACILIONE,CAMPOLIETO MONACILIONE,41.642537,14.765312
838,CAMPOMARINO,CAMPOMARINO,,CAMPOMARINO,41.957403,15.042432
3421,CAMPOMIGLIAIO,CAMPOMIGLIAIO,,CAMPOMIGLIAIO,43.936998,11.303126
27,CAMPORA S.GIOVANNI SERRA AIELLO,CAMPORA SAN GIOVANNI SERRA AIELLO,,CAMPORA SAN GIOVANNI SERRA AIELLO,39.068056,16.090833
840,CAMPORGIANO,CAMPORGIANO,,CAMPORGIANO,44.161899,10.334484
842,CAMPOSAMPIERO,CAMPOSAMPIERO,,CAMPOSAMPIERO,45.568927,11.92829
843,CAMPOSANTO,CAMPOSANTO,,CAMPOSANTO,44.792987,11.143073
844,CAMUCIA CORTONA,CAMUCIA CORTONA,,CAMUCIA CORTONA,43.261692,11.970889
845,CANARO,CANARO,,CANARO,44.922764,11.674614
847,CANCELLIERA,CANCELLIERA,,CANCELLIERA,41.710748,12.621708
848,CANCELLO,CANCELLO,,CANCELLO,40.994298,14.419398
849,CANCELLO ARNONE,CANCELLO ARNONE,,CANCELLO ARNONE,41.063416,14.029212
852,CANDELO,CANDELO,,CANDELO,45.547371,8.100053
853,CANDIA CANAVESE,CANDIA CANAVESE,,CANDIA CANAVESE,45.330074,7.891558
854,CANDIA LOMELLINA,CANDIA LOMELLINA,,CANDIA LOMELLINA,45.1799,8.59321
856,CANDIOLO,CANDIOLO,,CANDIOLO,44.96122,7.598914
858,CANEGRATE,CANEGRATE,,CANEGRATE,45.569232,8.926603
859,CANELLI,CANELLI,,CANELLI,44.7148,8.28854
860,CANETRA,CANETRA,,CANETRA,42.391636,13.029216
861,CANICATTI',CANICATTI,,CANICATTI,37.359924,13.855406
865,CANNE DELLA BATTAGLIA,CANNE DELLA BATTAGLIA,,CANNE DELLA BATTAGLIA,41.294619,16.146208
866,CANNETO SULL'OGLIO,CANNETO SULL OGLIO,,CANNETO SULL OGLIO,45.150278,10.371389
867,CANNIZZARO,CANNIZZARO,,CANNIZZARO,37.547,15.1298
868,CANOSA DI PUGLIA,CANOSA DI PUGLIA,,CANOSA DI PUGLIA,41.214795,16.049403
872,CANTU',CANTU,,CANTU,45.752423,9.130274
873,CANTU'-CERMENATE,CANTU CERMENATE,,CANTU CERMENATE,45.713419,9.098368
874,CAORSO,CAORSO,,CAORSO,45.042033,9.86736
28,CAPACCIO ROCCADASPIDE,CAPACCIO ROCCADASPIDE,,CAPACCIO ROCCADASPIDE,40.455008,15.013873
3224,CAPACI,CAPACI,,CAPACI,38.171775,13.232463
876,CAPALBIO,CAPALBIO,,CAPALBIO,42.408176,11.371129
877,CAPANNELLE,CAPANNELLE,,CAPANNELLE,41.830754,12.568834
878,CAPISTRELLO,CAPISTRELLO,,CAPISTRELLO,41.9705,13.399212
30,CAPO BONIFATI,CAPO BONIFATI,,CAPO BONIFATI,39.558415,15.873808
31,CAPO SPARTIVENTO,CAPO SPARTIVENTO,,CAPO SPARTIVENTO,37.92477,16.058374
879,CAPO D'ORLANDO-NASO,CAPO D ORLANDO NASO,,CAPO D ORLANDO NASO,38.15768,14.744511
882,CAPPELLE-MAGLIANO,CAPPELLE MAGLIANO,,CAPPELLE MAGLIANO,42.0596,13.3724
883,CAPRALBA,CAPRALBA,,CAPRALBA,45.4435,9.64002
884,CAPRANICA-SUTRI,CAPRANICA SUTRI,,CAPRANICA SUTRI,42.245192,12.157173
886,CAPRIATI AL VOLTURNO,CAPRIATI AL VOLTURNO,CAPRIATI A VOLTURNO,CAPRIATI A VOLTURNO,41.442778,14.070278
888,CAPRIVA,CAPRIVA,,CAPRIVA,45.939255,13.514149
889,CAPUA,CAPUA,,CAPUA,41.101234,14.210471
891,CARATE-CALO',CARATE CALO,,CARATE CALO,45.676389,9.251944
892,CARAVAGGIO,CARAVAGGIO,,CARAVAGGIO,45.4908,9.63841
893,CARBONA,CARBONA,,CARBONA,44.247072,11.096428
894,CARBONIA STATO,CARBONIA STATO,,CARBONIA STATO,39.1697,8.50917
898,CARENTINO,CARENTINO,,CARENTINO,44.8312,8.47044
34,CARIATI,CARIATI,,CARIATI,39.496722,16.951974
899,CARIMATE,CARIMATE,,CARIMATE,45.694461,9.107546
900,CARINI,CARINI,,CARINI,38.147702,13.186636
3442,CARINI TORRE CIACHEA,CARINI TORRE CIACHEA,,CARINI TORRE CIACHEA,38.163415,13.218053
902,CARMAGNOLA,CARMAGNOLA,,CARMAGNOLA,44.846945,7.72797
904,CARMIGNANO DI BRENTA,CARMIGNANO DI BRENTA,,CARMIGNANO DI BRENTA,45.621379,11.714913
905,CARNATE USMATE,CARNATE USMATE,,CARNATE USMATE,45.6532,9.37495
906,CARNIA,CARNIA,,CARNIA,46.371169,13.128592
908,CARONIA,CARONIA,,CARONIA,38.034339,14.443795
909,CAROVIGNO,CAROVIGNO,,CAROVIGNO,40.73718,17.683633
910,CAROVILLI-ROCCASICURA,CAROVILLI ROCCASICURA,,CAROVILLI ROCCASICURA,41.714559,14.294376
911,CARPANE'-VALSTAGNA,CARPANE VALSTAGNA,,CARPANE VALSTAGNA,45.860123,11.661193
912,CARPI,CARPI,,CARPI,44.782883,10.892103
913,CARPIGNANO SESIA,CARPIGNANO SESIA,,CARPIGNANO SESIA,45.528844,8.421625
914,CARPINONE,CARPINONE,,CARPINONE,41.588162,14.326872
915,CARRARA AVENZA,CARRARA AVENZA,,CARRARA AVENZA,44.051323,10.062875
916,CARRITO-ORTONA,CARRITO ORTONA,,CARRITO ORTONA,42.026467,13.720199
918,CARRUBA,CARRUBA,,CARRUBA,37.689028,15.191401
919,CARSOLI,CARSOLI,,CARSOLI,42.095621,13.080185
921,CASABIANCA,CASABIANCA,,CASABIANCA,41.788414,12.604314
922,CASACALENDA GUARDIALFIERA,CASACALENDA GUARDIALFIERA,,CASACALENDA GUARDIALFIERA,41.7383,14.8495
924,CASALBORDINO POLLUTRI,CASALBORDINO POLLUTRI,,CASALBORDINO POLLUTRI,42.193729,14.633036
926,CASALBUTTANO,CASALBUTTANO,,CASALBUTTANO,45.2553,9.96225
927,CASALE MONFERRATO,CASALE MONFERRATO,,CASALE MONFERRATO,45.134002,8.460143
3506,CASALECCHIO GARIBALDI,CASALECCHIO GARIBALDI,,CASALECCHIO GARIBALDI,44.482742,11.272733
929,CASALECCHIO DI RENO,CASALECCHIO DI RENO,,CASALECCHIO DI RENO,44.474265,11.276068
930,CASALEGGIO,CASALEGGIO,,CASALEGGIO,45.4912,8.49034
932,CASALETTO VAPRIO,CASALETTO VAPRIO,,CASALETTO VAPRIO,45.4087,9.63151
934,CASALMAGGIORE,CASALMAGGIORE,,CASALMAGGIORE,44.993,10.425
935,CASALNUOVO,CASALNUOVO,CASALNUOVO DI NAPOLI,CASALNUOVO DI NAPOLI,40.915544,14.352815
937,CASALPUSTERLENGO,CASALPUSTERLENGO,,CASALPUSTERLENGO,45.182534,9.65365
938,CASARSA,CASARSA,,CASARSA,45.953216,12.840398
939,CASCINA,CASCINA,,CASCINA,43.674666,10.545074
5036,CASELLE TORINESE,CASELLE TORINESE,,CASELLE TORINESE,45.175619,7.644844
945,CASERTA,CASERTA,,CASERTA,41.068468,14.328167
946,CASINO DI TERRA,CASINO DI TERRA,,CASINO DI TERRA,43.32868,10.662887
947,CASLETTO-ROGENO,CASLETTO ROGENO,,CASLETTO ROGENO,45.7861,9.27545
948,CASORATE SEMPIONE,CASORATE SEMPIONE,,CASORATE SEMPIONE,45.675431,8.743304
949,CASORIA-AFRAGOLA,CASORIA AFRAGOLA,,CASORIA AFRAGOLA,40.907732,14.298619
950,CASSAGO-NIBIONNO-BULCIAGO,CASSAGO NIBIONNO BULCIAGO,,CASSAGO NIBIONNO BULCIAGO,45.7462,9.27991
951,CASSANO D'ADDA,CASSANO D ADDA,,CASSANO D ADDA,45.51435,9.5128
954,CASSINE,CASSINE,,CASSINE,44.751502,8.533684
955,CASSINO,CASSINO,,CASSINO,41.484255,13.832376
956,CASSOLA,CASSOLA,,CASSOLA,45.732396,11.795672
959,CASTAGNARO,CASTAGNARO,,CASTAGNARO,45.119466,11.40358
960,CASTAGNETO CARDUCCI-DONORATICO,CASTAGNETO CARDUCCI DONORATICO,,CASTAGNETO CARDUCCI DONORATICO,43.168744,10.563781
961,CASTAGNO,CASTAGNO,,CASTAGNO,44.012301,10.915439
962,CASTAGNOLE DELLE LANZE,CASTAGNOLE DELLE LANZE,,CASTAGNOLE DELLE LANZE,44.749,8.15207
964,CASTEGGIO,CASTEGGIO,,CASTEGGIO,45.017394,9.124698
978,CASTELBOLOGNESE-RIOLO TERME,CASTELBOLOGNESE RIOLO TERME,CASTEL BOLOGNESE RIOLO TERME,CASTEL BOLOGNESE RIOLO TERME,44.325485,11.804041
970,CASTEL GANDOLFO,CASTEL GANDOLFO,,CASTEL GANDOLFO,41.746902,12.65229
971,CASTEL LAGOPESOLE,CASTEL LAGOPESOLE,,CASTEL LAGOPESOLE,40.787654,15.758063
972,CASTEL MADAMA,CASTEL MADAMA,,CASTEL MADAMA,41.988478,12.865019
974,CASTEL S.GIORGIO ROCCAPIEMONTE,CASTEL SAN GIORGIO ROCCAPIEMONTE,,CASTEL SAN GIORGIO ROCCAPIEMONTE,40.771501,14.695025
975,CASTEL S.GIOVANNI,CASTEL SAN GIOVANNI,,CASTEL SAN GIOVANNI,45.063176,9.436938
976,CASTEL S.PIETRO TERME,CASTEL SAN PIETRO TERME,,CASTEL SAN PIETRO TERME,44.407224,11.598107
973,CASTEL S.ANGELO,CASTEL SAN ANGELO,CASTEL SANT ANGELO,CASTEL SANT ANGELO,42.379689,13.01753
969,CASTEL DI SANGRO,CASTEL DI SANGRO,,CASTEL DI SANGRO,41.778077,14.112228
967,CASTEL D'ARIO,CASTEL D ARIO,,CASTEL D ARIO,45.183433,10.975352
980,CASTELDACCIA,CASTELDACCIA,,CASTELDACCIA,38.060201,13.53726
981,CASTELDARNE,CASTELDARNE,CASTELDARNE EHRENBURG,CASTELDARNE EHRENBURG,46.797608,11.84407
3505,CASTELDEBOLE,CASTELDEBOLE,,CASTELDEBOLE,44.503858,11.27472
982,CASTELFERRETTI-FALCONARA AEROPORTO,CASTELFERRETTI FALCONARA AEROPORTO,CASTELFERRETTI,CASTELFERRETTI,43.60722,13.357242
983,CASTELFIORENTINO,CASTELFIORENTINO,,CASTELFIORENTINO,43.605278,10.968134
985,CASTELFRANCO EMILIA,CASTELFRANCO EMILIA,,CASTELFRANCO EMILIA,44.5973,11.0566
987,CASTELFRANCO VENETO,CASTELFRANCO VENETO,,CASTELFRANCO VENETO,45.666397,11.934034
988,CASTELGUELFO,CASTELGUELFO,,CASTELGUELFO,44.836576,10.176822
991,CASTELLALTO CANZANO,CASTELLALTO CANZANO,,CASTELLALTO CANZANO,42.692001,13.792625
958,CASTELLAMMARE DEL GOLFO,CASTELLAMMARE DEL GOLFO,,CASTELLAMMARE DEL GOLFO,38.024289,12.912069
992,CASTELLAMMARE DI STABIA,CASTELLAMMARE DI STABIA,,CASTELLAMMARE DI STABIA,40.70143,14.483815
994,CASTELLANETA MARINA,CASTELLANETA MARINA,,CASTELLANETA MARINA,40.48114,16.965413
997,CASTELLEONE,CASTELLEONE,,CASTELLEONE,45.3017,9.76777
999,CASTELLETTO TICINO,CASTELLETTO TICINO,,CASTELLETTO TICINO,45.711037,8.638633
1000,CASTELLINA IN CHIANTI-MONTERIGGIONI,CASTELLINA IN CHIANTI MONTERIGGIONI,,CASTELLINA IN CHIANTI MONTERIGGIONI,43.4087,11.2123
957,CASTELLO DI GODEGO,CASTELLO DI GODEGO,,CASTELLO DI GODEGO,45.688097,11.877599
1004,CASTELLO D'ANNONE,CASTELLO D ANNONE,,CASTELLO D ANNONE,44.878906,8.312639
1005,CASTELLUCCHIO,CASTELLUCCHIO,,CASTELLUCCHIO,45.1443,10.6475
989,CASTELL'ALFERO,CASTELL ALFERO,,CASTELL ALFERO,44.984262,8.222157
1007,CASTELMAGGIORE,CASTELMAGGIORE,,CASTELMAGGIORE,44.577012,11.367399
1009,CASTELNUOVO BELBO,CASTELNUOVO BELBO,,CASTELNUOVO BELBO,44.7976,8.42041
1010,CASTELNUOVO BERARDENGA,CASTELNUOVO BERARDENGA,,CASTELNUOVO BERARDENGA,43.306899,11.485076
1011,CASTELNUOVO DEL GARDA,CASTELNUOVO DEL GARDA,,CASTELNUOVO DEL GARDA,45.430826,10.758254
1012,CASTELNUOVO DI GARFAGNANA,CASTELNUOVO DI GARFAGNANA,,CASTELNUOVO DI GARFAGNANA,44.1168,10.408798
1013,CASTELPLANIO CUPRAMONTANA,CASTELPLANIO CUPRAMONTANA,,CASTELPLANIO CUPRAMONTANA,43.481422,13.084749
1014,CASTELRAIMONDO CAMERINO,CASTELRAIMONDO CAMERINO,,CASTELRAIMONDO CAMERINO,43.210517,13.05729
1015,CASTELROSSO,CASTELROSSO,,CASTELROSSO,45.201753,7.933196
1016,CASTELVECCHIO PASCOLI,CASTELVECCHIO PASCOLI,,CASTELVECCHIO PASCOLI,44.090309,10.455281
1018,CASTELVETRANO,CASTELVETRANO,,CASTELVETRANO,37.68367,12.798895
1019,CASTELVETRO,CASTELVETRO,,CASTELVETRO,45.099168,9.982053
1021,CASTIGLION FIORENTINO,CASTIGLION FIORENTINO,,CASTIGLION FIORENTINO,43.341,11.9145
1022,CASTIGLIONCELLO,CASTIGLIONCELLO,,CASTIGLIONCELLO,43.404702,10.415207
38,CASTIGLIONE COSENTINO,CASTIGLIONE COSENTINO,,CASTIGLIONE COSENTINO,39.355547,16.243975
1020,CASTIGLION DEL LAGO,CASTIGLION DEL LAGO,CASTIGLIONE DEL LAGO,CASTIGLIONE DEL LAGO,43.122854,12.032484
1025,CASTIONE ANDEVENNO,CASTIONE ANDEVENNO,,CASTIONE ANDEVENNO,46.1615,9.80804
1026,CASTIONE DEI MARCHESI,CASTIONE DEI MARCHESI,,CASTIONE DEI MARCHESI,44.9152,10.0442
1029,CASTRONNO,CASTRONNO,,CASTRONNO,45.7452,8.81053
1031,CATANIA ACQUICELLA,CATANIA ACQUICELLA,,CATANIA ACQUICELLA,37.492775,15.074658
3209,CATANIA AEROPORTO FONTANAROSSA,CATANIA AEROPORTO FONTANAROSSA,,CATANIA AEROPORTO FONTANAROSSA,37.475735,15.061795
1032,CATANIA CENTRALE,CATANIA CENTRALE,,CATANIA CENTRALE,37.506574,15.10016
2283,PICANELLO,PICANELLO,CATANIA PICANELLO,CATANIA PICANELLO,37.521,15.10766
39,CATANZARO,CATANZARO,CATANZARO CITTA,CATANZARO CITTA,38.913292,16.584408
40,CATANZARO LIDO,CATANZARO LIDO,,CATANZARO LIDO,38.822451,16.613647
1034,CATENANUOVA-CENTURIPE,CATENANUOVA CENTURIPE,,CATENANUOVA CENTURIPE,37.561642,14.688994
1035,CATTOLICA S.GIOVANNI GABICCE,CATTOLICA SAN GIOVANNI GABICCE,,CATTOLICA SAN GIOVANNI GABICCE,43.959903,12.745022
41,CAULONIA,CAULONIA,,CAULONIA,38.343793,16.46724
1037,CAVA CARBONARA,CAVA CARBONARA,,CAVA CARBONARA,45.147022,9.071445
1040,CAVA TIGOZZI,CAVA TIGOZZI,,CAVA TIGOZZI,45.1567,9.95567
1038,CAVA DEI TIRRENI,CAVA DEI TIRRENI,,CAVA DEI TIRRENI,40.703587,14.708491
1041,CAVAGNOLO BRUSASCO,CAVAGNOLO BRUSASCO,,CAVAGNOLO BRUSASCO,45.153333,8.047222
1042,CAVALLEGGERI AOSTA,CAVALLEGGERI AOSTA,,CAVALLEGGERI AOSTA,40.819935,14.188115
1043,CAVALLERMAGGIORE,CAVALLERMAGGIORE,,CAVALLERMAGGIORE,44.708228,7.692015
1044,CAVANELLA D'ADIGE,CAVANELLA D ADIGE,,CAVANELLA D ADIGE,45.111295,12.249384
1046,CAVARIA OGGIONA IERAGO,CAVARIA OGGIONA IERAGO,,CAVARIA OGGIONA IERAGO,45.698333,8.803333
1047,CAVAZZALE,CAVAZZALE,,CAVAZZALE,45.596209,11.569845
227,CAVI,CAVI,,CAVI,44.294607,9.370849
1049,CECCANO,CECCANO,,CECCANO,41.573482,13.336261
1050,CECCHINA,CECCHINA,,CECCHINA,41.69232,12.650483
1051,CECINA,CECINA,,CECINA,43.310324,10.514322
1053,CEFALU',CEFALU,,CEFALU,38.032676,14.019846
1054,CEGGIA,CEGGIA,,CEGGIA,45.688313,12.633979
1055,CELANO-OVINDOLI,CELANO OVINDOLI,,CELANO OVINDOLI,42.077004,13.54339
42,CELLE BULGHERIA ROCCAGLORIOSA,CELLE BULGHERIA ROCCAGLORIOSA,,CELLE BULGHERIA ROCCAGLORIOSA,40.102811,15.394674
228,CELLE,CELLE,CELLE LIGURE,CELLE LIGURE,44.3423,8.5428
1056,CENGIO,CENGIO,,CENGIO,44.390666,8.192463
1057,CENTALLO,CENTALLO,,CENTALLO,44.49637,7.5913
43,CENTOLA-PALINURO-MARINA DI CAMEROTA,CENTOLA PALINURO MARINA DI CAMEROTA,CENTOLA,CENTOLA,40.090505,15.346627
1058,CEPRANO-FALVATERRA,CEPRANO FALVATERRA,,CEPRANO FALVATERRA,41.523772,13.522598
1061,CERCHIO,CERCHIO,,CERCHIO,42.061102,13.598404
1062,CERDA,CERDA,,CERDA,37.953949,13.784463
1063,CEREA,CEREA,,CEREA,45.195874,11.214402
1064,CEREGNANO,CEREGNANO,,CEREGNANO,45.050609,11.871397
229,CERIALE,CERIALE,,CERIALE,44.098993,8.234074
1065,CERIGNOLA CAMPAGNA,CERIGNOLA CAMPAGNA,,CERIGNOLA CAMPAGNA,41.315636,15.897342
1066,CERNUSCO-MERATE,CERNUSCO MERATE,,CERNUSCO MERATE,45.695,9.39693
1067,CERRETO D'ESI,CERRETO D ESI,,CERRETO D ESI,43.321929,12.983201
1068,CERTALDO,CERTALDO,,CERTALDO,43.547136,11.037764
1069,CERTOSA DI PAVIA,CERTOSA DI PAVIA,,CERTOSA DI PAVIA,45.2565,9.15436
1072,CERVIA-MILANO MARITTIMA,CERVIA MILANO MARITTIMA,,CERVIA MILANO MARITTIMA,44.258443,12.347088
1073,CERVIGNANO-AQUILEIA-GRADO,CERVIGNANO AQUILEIA GRADO,,CERVIGNANO AQUILEIA GRADO,45.823933,13.343704
5433,S.BARTOLOMEO-RESINA,SAN BARTOLOMEO RESINA,CERVO SAN BARTOLOMEO,CERVO SAN BARTOLOMEO,43.923901,8.109717
780,CESANO BOSCONE,CESANO BOSCONE,,CESANO BOSCONE,45.4304,9.09161
1075,CESANO DI ROMA,CESANO DI ROMA,,CESANO DI ROMA,42.06201,12.326467
1077,CESENA,CESENA,,CESENA,44.145476,12.24951
1078,CESENATICO,CESENATICO,,CESENATICO,44.200562,12.391279
5267,CESI,CESI,,CESI,42.596839,12.594223
44,CETRARO,CETRARO,,CETRARO,39.505307,15.945164
1079,CEVA,CEVA,,CEVA,44.389794,8.031933
1080,PM CHAMBAVE,PM CHAMBAVE,CHAMBAVE,CHAMBAVE,45.7443,7.55718
1081,CHATILLON-SAINT-VINCENT,CHATILLON SAINT VINCENT,,CHATILLON SAINT VINCENT,45.743056,7.619167
1083,CHIANCHE CEPPALONI,CHIANCHE CEPPALONI,,CHIANCHE CEPPALONI,41.050112,14.7776
1084,CHIARAVALLE,CHIARAVALLE,,CHIARAVALLE,43.595561,13.327712
1085,CHIARI,CHIARI,,CHIARI,45.540053,9.926572
1087,CHIASSO,CHIASSO,,CHIASSO,45.832222,9.033889
231,CHIAVARI,CHIAVARI,,CHIAVARI,44.315138,9.322488
1089,CHIAVENNA,CHIAVENNA,,CHIAVENNA,46.319778,9.405116
1090,CHIERI,CHIERI,,CHIERI,45.006355,7.823644
1091,CHIETI,CHIETI,,CHIETI,42.356712,14.138198
1092,CHIEUTI SERRACAPRIOLA,CHIEUTI SERRACAPRIOLA,,CHIEUTI SERRACAPRIOLA,41.921841,15.156666
1093,CHIGNOLO PO,CHIGNOLO PO,,CHIGNOLO PO,45.1609,9.49427
1094,CHIOGGIA,CHIOGGIA,,CHIOGGIA,45.210401,12.275246
1095,CHIOMONTE,CHIOMONTE,,CHIOMONTE,45.117372,6.987809
1099,CHIUDUNO,CHIUDUNO,,CHIUDUNO,45.6505,9.84695
1100,CHIURO,CHIURO,,CHIURO,46.1645,9.99207
1101,CHIUSA,CHIUSA,CHIUSA KLAUSEN,CHIUSA KLAUSEN,46.642571,11.572649
1103,CHIUSANO COSSOMBRATO,CHIUSANO COSSOMBRATO,,CHIUSANO COSSOMBRATO,44.984722,8.128889
1104,CHIUSI-CHIANCIANO TERME,CHIUSI CHIANCIANO TERME,,CHIUSI CHIANCIANO TERME,43.002471,11.9579
1105,CHIVASSO,CHIVASSO,,CHIVASSO,45.193474,7.889661
1106,CIAMPINO,CIAMPINO,,CIAMPINO,41.804298,12.599523
1110,CINISI TERRASINI,CINISI TERRASINI,,CINISI TERRASINI,38.155532,13.096752
5039,CIRIE',CIRIE,,CIRIE,45.230464,7.601685
46,CIRO',CIRO,,CIRO,39.368734,17.116899
1111,CISANO CAPRINO BERGAMASCO,CISANO CAPRINO BERGAMASCO,,CISANO CAPRINO BERGAMASCO,45.739542,9.474396
1112,CISMON DEL GRAPPA,CISMON DEL GRAPPA,,CISMON DEL GRAPPA,45.919614,11.729331
1113,CISTERNA DI LATINA,CISTERNA DI LATINA,,CISTERNA DI LATINA,41.587281,12.826725
1114,CISTERNINO,CISTERNINO,,CISTERNINO,40.816456,17.456862
1117,CITTADELLA,CITTADELLA,,CITTADELLA,45.643996,11.789748
1118,CITTADUCALE,CITTADUCALE,,CITTADUCALE,42.387833,12.942731
5419,CITTA' DI CASTELLO,CITTA DI CASTELLO,,CITTA DI CASTELLO,43.454581,12.247167
1119,CIVATE,CIVATE,,CIVATE,45.8313,9.35269
5074,CIVIDALE DEL FRIULI,CIVIDALE DEL FRIULI,CIVIDALE,CIVIDALE,46.095,13.4242
1120,CIVITA CASTELLANA-MAGLIANO,CIVITA CASTELLANA MAGLIANO,,CIVITA CASTELLANA MAGLIANO,42.3466,12.454
1121,CIVITA D'ANTINO-MORINO,CIVITA D ANTINO MORINO,,CIVITA D ANTINO MORINO,41.89944,13.43641
1122,CIVITANOVA MARCHE-MONTEGRANARO,CIVITANOVA MARCHE MONTEGRANARO,,CIVITANOVA MARCHE MONTEGRANARO,43.309129,13.725782
1123,CIVITAVECCHIA,CIVITAVECCHIA,,CIVITAVECCHIA,42.087854,11.799276
1125,CIVITELLA ROVETO,CIVITELLA ROVETO,,CIVITELLA ROVETO,41.91598,13.42511
1124,CIVITELLA PAGANICO,CIVITELLA PAGANICO,,CIVITELLA PAGANICO,42.940355,11.283323
1127,CLASSE,CLASSE,,CLASSE,44.382144,12.235127
1128,COCCAGLIO,COCCAGLIO,,COCCAGLIO,45.560881,9.977666
1129,COCCONATO,COCCONATO,,COCCONATO,45.083648,8.06942
1130,COCULLO,COCULLO,,COCULLO,42.040742,13.776634
1134,CODOGNO,CODOGNO,,CODOGNO,45.154875,9.701464
1135,CODOLA,CODOLA,,CODOLA,40.767572,14.665784
1136,CODROIPO,CODROIPO,,CODROIPO,45.96572,12.976728
232,COGOLETO,COGOLETO,,COGOLETO,44.389794,8.643919
1139,COLICO,COLICO,,COLICO,46.138,9.37529
1141,COLLE ISARCO,COLLE ISARCO,COLLE ISARCO GOSSENSASS,COLLE ISARCO GOSSENSASS,46.938011,11.44138
1142,COLLE MATTIA,COLLE MATTIA,,COLLE MATTIA,41.832731,12.728365
1144,COLLECCHIO,COLLECCHIO,,COLLECCHIO,44.755151,10.212285
1145,COLLEFERRO-SEGNI-PALIANO,COLLEFERRO SEGNI PALIANO,,COLLEFERRO SEGNI PALIANO,41.740097,13.002941
1146,COLLEGNO,COLLEGNO,,COLLEGNO,45.078862,7.574301
5450,COLLEVALENZA R.R.,COLLEVALENZA R R,COLLEVALENZA ROSCETO ROSARNO,COLLEVALENZA ROSCETO ROSARNO,42.726991,12.469872
1148,COLLEVECCHIO-POGGIO SOMMAVILLA,COLLEVECCHIO POGGIO SOMMAVILLA,,COLLEVECCHIO POGGIO SOMMAVILLA,42.297653,12.522881
2333,COLLI DEL TRONTO,COLLI DEL TRONTO,,COLLI DEL TRONTO,42.86706,13.748419
1149,COLLI DI MONTE BOVE,COLLI DI MONTE BOVE,,COLLI DI MONTE BOVE,42.097284,13.150598
1151,COLOGNE,COLOGNE,,COLOGNE,45.5767,9.93551
1153,COLORNO,COLORNO,,COLORNO,44.9279,10.3828
1154,COMIGNAGO,COMIGNAGO,,COMIGNAGO,45.7143,8.56611
1155,COMISO,COMISO,,COMISO,36.947283,14.60054
1158,COMO S.GIOVANNI,COMO SAN GIOVANNI,,COMO SAN GIOVANNI,45.80902,9.072796
1159,COMPIOBBI,COMPIOBBI,,COMPIOBBI,43.781916,11.358418
48,CONDOFURI,CONDOFURI,,CONDOFURI,37.927817,15.874869
1162,CONDOVE-CHIUSA S.MICHELE,CONDOVE CHIUSA SAN MICHELE,,CONDOVE CHIUSA SAN MICHELE,45.106603,7.318378
1163,CONEGLIANO,CONEGLIANO,,CONEGLIANO,45.884664,12.299104
1166,CONSELICE,CONSELICE,,CONSELICE,44.511085,11.832105
1167,CONTEA LONDA,CONTEA LONDA,,CONTEA LONDA,43.866747,11.531524
1168,CONTESSE,CONTESSE,,CONTESSE,38.150822,15.535876
1169,CONTIGLIANO,CONTIGLIANO,,CONTIGLIANO,42.412095,12.779128
1170,CONTURSI TERME,CONTURSI TERME,,CONTURSI TERME,40.63,15.2363
1174,CORBETTA-S.STEFANO TICINO,CORBETTA SAN STEFANO TICINO,CORBETTA SANTO STEFANO TICINO,CORBETTA SANTO STEFANO TICINO,45.480994,8.918189
1175,CORBEZZI,CORBEZZI,,CORBEZZI,43.994107,10.919718
1178,CORDOVADO SESTO,CORDOVADO SESTO,,CORDOVADO SESTO,45.850613,12.87782
49,CORIGLIANO CALABRO,CORIGLIANO CALABRO,,CORIGLIANO CALABRO,39.628109,16.514874
1180,CORMONS,CORMONS,,CORMONS,45.957566,13.461517
233,CORNIGLIA,CORNIGLIA,,CORNIGLIA,44.118688,9.71555
1182,CORNINO,CORNINO,,CORNINO,46.218011,13.00793
1183,CORNUDA,CORNUDA,,CORNUDA,45.833938,12.013103
1185,CORRIDONIA MOGLIANO,CORRIDONIA MOGLIANO,,CORRIDONIA MOGLIANO,43.28164,13.477607
1186,CORSANO,CORSANO,,CORSANO,41.164167,14.958056
1187,CORSICO,CORSICO,,CORSICO,45.4361,9.1093
1188,CORTEOLONA,CORTEOLONA,,CORTEOLONA,45.1597,9.37551
50,COSENZA,COSENZA,,COSENZA,39.318979,16.260506
1189,COSIO TRAONA,COSIO TRAONA,,COSIO TRAONA,46.1355,9.52521
1190,COSSATO,COSSATO,,COSSATO,45.563875,8.176597
1192,COSTA,COSTA,,COSTA,45.045952,11.696324
1193,COSTA MASNAGA,COSTA MASNAGA,,COSTA MASNAGA,45.7635,9.28489
1194,COSTIGLIOLE (MOTTA DI),COSTIGLIOLE MOTTA DI,,COSTIGLIOLE MOTTA DI,44.808469,8.147182
1196,COSTIGLIOLE SALUZZO,COSTIGLIOLE SALUZZO,,COSTIGLIOLE SALUZZO,44.570278,7.481667
1195,COSTIGLIOLE D`ASTI,COSTIGLIOLE D ASTI,,COSTIGLIOLE D ASTI,44.757537,8.200833
1197,COTIGNOLA,COTIGNOLA,,COTIGNOLA,44.384778,11.936605
1201,CREMA,CREMA,,CREMA,45.3667,9.69419
1202,CREMONA,CREMONA,,CREMONA,45.143306,10.01828
1203,CRESCENTINO,CRESCENTINO,,CRESCENTINO,45.194346,8.107299
1205,CRESSA FONTANETO,CRESSA FONTANETO,,CRESSA FONTANETO,45.646207,8.498572
1206,CREVALCORE,CREVALCORE,,CREVALCORE,44.71915,11.152997
51,CROPANI,CROPANI,,CROPANI,38.922141,16.813495
52,CROTONE,CROTONE,,CROTONE,39.084073,17.10782
53,CRUCOLI,CRUCOLI,,CRUCOLI,39.449457,17.040662
1208,CUCCIAGO,CUCCIAGO,,CUCCIAGO,45.738311,9.083455
1211,CUNEO,CUNEO,,CUNEO,44.387897,7.535953
1212,CUNEO GESSO,CUNEO GESSO,,CUNEO GESSO,44.3942,7.55587
1213,CUNICO SCANDELUZZA,CUNICO SCANDELUZZA,,CUNICO SCANDELUZZA,45.036667,8.109722
1215,CUPRAMARITTIMA,CUPRAMARITTIMA,,CUPRAMARITTIMA,43.023406,13.860835
1216,CUREGGIO,CUREGGIO,,CUREGGIO,45.6725,8.4566
1217,CUSANO,CUSANO,,CUSANO,45.945458,12.757329
55,CUTRO,CUTRO,,CUTRO,39.025562,16.962932
1218,CUZZAGO (MI),CUZZAGO MI,CUZZAGO,CUZZAGO,45.993757,8.372184
3208,CUZZAGO (NO),CUZZAGO NO,CUZZAGO,CUZZAGO,45.993757,8.372184
778,CA` DI BOSCHETTI,CA DI BOSCHETTI,,CA DI BOSCHETTI,44.11832,9.864097
1223,DECIMOMANNU,DECIMOMANNU,,DECIMOMANNU,39.304551,8.965966
1224,DEGO,DEGO,,DEGO,44.448008,8.308369
234,DEIVA MARINA,DEIVA MARINA,,DEIVA MARINA,44.217228,9.519082
1225,DELEBIO,DELEBIO,,DELEBIO,46.1386,9.46128
1227,DERBY,DERBY,,DERBY,45.7304,7.0865
5441,DERUTA,DERUTA,DERUTA SAN NICOLO,DERUTA SAN NICOLO,43.009973,12.397392
1228,DERVIO,DERVIO,,DERVIO,46.0777,9.3062
1229,DESENZANO DEL GARDA-SIRMIONE,DESENZANO DEL GARDA SIRMIONE,,DESENZANO DEL GARDA SIRMIONE,45.462665,10.536274
1230,DESIO,DESIO,,DESIO,45.617837,9.217916
56,DIAMANTE BUONVICINO,DIAMANTE BUONVICINO,,DIAMANTE BUONVICINO,39.67719,15.824044
4502,DIANO,DIANO,DIANO MARINA,DIANO MARINA,43.909662,8.078515
1240,DICOMANO,DICOMANO,,DICOMANO,43.892987,11.519415
1241,DIECIMO-PESCAGLIA,DIECIMO PESCAGLIA,,DIECIMO PESCAGLIA,43.959381,10.507751
1246,DITTAINO,DITTAINO,,DITTAINO,37.566154,14.457288
1247,DOBBIACO,DOBBIACO,DOBBIACO TOBLACH,DOBBIACO TOBLACH,46.72485,12.225509
5413,LA DOGANA,LA DOGANA,DOGNA,DOGNA,46.442606,13.316134
1250,PC DOLCE',PC DOLCE,DOLCE,DOLCE,45.601594,10.850744
1251,DOLO,DOLO,,DOLO,45.453442,12.071748
1252,DOMEGLIARA-S.AMBROGIO,DOMEGLIARA SAN AMBROGIO,DOMEGLIARA SANT AMBROGIO,DOMEGLIARA SANT AMBROGIO,45.522462,10.820423
1253,DOMODOSSOLA,DOMODOSSOLA,,DOMODOSSOLA,46.115453,8.296666
1256,DONNAS,DONNAS,DONNA,DONNA,44.819077,8.712673
1255,DONNAFUGATA,DONNAFUGATA,,DONNAFUGATA,36.882183,14.568817
1258,DORIO,DORIO,,DORIO,46.1027,9.31921
1259,DORMELLETTO,DORMELLETTO,,DORMELLETTO,45.7234,8.58222
1260,DORMELLETTO PAESE,DORMELLETTO PAESE,,DORMELLETTO PAESE,45.73,8.57437
1261,DOSSOBUONO,DOSSOBUONO,,DOSSOBUONO,45.392154,10.914621
1263,DUBINO,DUBINO,,DUBINO,46.1728,9.43238
1265,DUEVILLE,DUEVILLE,,DUEVILLE,45.635087,11.546104
1266,EBOLI,EBOLI,,EBOLI,40.611205,15.052419
1267,ECA NASAGO`,ECA NASAGO,,ECA NASAGO,44.160556,7.964722
57,PM ECCELLENTE,PM ECCELLENTE,ECCELLENTE,ECCELLENTE,38.8096,16.2327
1268,EGNA-TERMENO,EGNA TERMENO,EGNA TERMENO NEUMARKT TRAMIN,EGNA TERMENO NEUMARKT TRAMIN,46.319499,11.257398
1270,ELLERA CORCIANO,ELLERA CORCIANO,,ELLERA CORCIANO,43.094619,12.318556
1048,ELMAS AEROPORTO,ELMAS AEROPORTO,,ELMAS AEROPORTO,39.257182,9.062949
1271,EMPOLI,EMPOLI,,EMPOLI,43.715693,10.94922
1272,ENAS,ENAS,,ENAS,40.857006,9.430978
1273,ENNA,ENNA,,ENNA,37.581094,14.289684
1275,EQUI TERME,EQUI TERME,,EQUI TERME,44.170313,10.15301
1276,ESTE,ESTE,,ESTE,45.220954,11.662919
1281,FABRIANO,FABRIANO,,FABRIANO,43.345508,12.905507
1282,FABRIANO CA' MAIANO,FABRIANO CA MAIANO,,FABRIANO CA MAIANO,43.34576,12.873442
1284,FABRO-FICULLE,FABRO FICULLE,,FABRO FICULLE,42.874869,12.041401
1286,FAE'-FORTOGNA,FAE FORTOGNA,,FAE FORTOGNA,46.227225,12.288047
1285,FAENZA,FAENZA,,FAENZA,44.293672,11.883227
3405,FAGARE',FAGARE,,FAGARE,45.705806,12.438859
1287,FAGNANO CAMPANA,FAGNANO CAMPANA,,FAGNANO CAMPANA,42.248554,13.567796
1288,FALCIANO-MONDRAGONE-CARINOLA,FALCIANO MONDRAGONE CARINOLA,,FALCIANO MONDRAGONE CARINOLA,41.123428,13.97169
1289,FALCONARA,FALCONARA,,FALCONARA,37.113511,14.052468
1291,FALCONARA MARITTIMA,FALCONARA MARITTIMA,,FALCONARA MARITTIMA,43.630376,13.397702
3577,FALCONARA STADIO,FALCONARA STADIO,,FALCONARA STADIO,43.626178,13.381207
1292,FALCONE,FALCONE,,FALCONE,38.119575,15.080465
59,FALERNA,FALERNA,,FALERNA,38.968579,16.150055
5442,FANCIULLATA,FANCIULLATA,,FANCIULLATA,42.9884,12.3882
1293,FANNA-CAVASSO,FANNA CAVASSO,,FANNA CAVASSO,46.187169,12.770875
1294,FANO,FANO,,FANO,43.84307,13.024497
1295,FANZOLO,FANZOLO,,FANZOLO,45.708502,11.992517
1296,FARA,FARA,,FARA,45.550616,8.458004
1297,FARA SABINA-MONTELIBRETTI,FARA SABINA MONTELIBRETTI,,FARA SABINA MONTELIBRETTI,42.15557,12.648415
1299,FASANO,FASANO,,FASANO,40.85155,17.385785
60,FAVAZZINA,FAVAZZINA,,FAVAZZINA,38.258629,15.756202
1303,FELEGARA-S.ANDREA BAGNI,FELEGARA SAN ANDREA BAGNI,FELEGARA SANT ANDREA BAGNI,FELEGARA SANT ANDREA BAGNI,44.7248,10.1144
5024,FELETTO,FELETTO,,FELETTO,45.301812,7.742633
1304,FELIZZANO,FELIZZANO,,FELIZZANO,44.893351,8.437473
1306,FELTRE,FELTRE,,FELTRE,46.01285,11.911642
1307,FERENTINO-SUPINO,FERENTINO SUPINO,,FERENTINO SUPINO,41.655599,13.247564
61,PM FEROLETO ANTICO PIANOPOLI,PM FEROLETO ANTICO PIANOPOLI,FEROLETO ANTICO PIANOPOLI,FEROLETO ANTICO PIANOPOLI,38.938056,16.365833
1308,FERRANDINA SCALO-MATERA,FERRANDINA SCALO MATERA,,FERRANDINA SCALO MATERA,40.51618,16.47569
237,FERRANIA,FERRANIA,,FERRANIA,44.365658,8.3258
1309,FERRARA,FERRARA,,FERRARA,44.84312,11.603833
1311,FERRERA LOMELLINA,FERRERA LOMELLINA,,FERRERA LOMELLINA,45.1119,8.86285
62,FERRUZZANO,FERRUZZANO,,FERRUZZANO,38.016361,16.134315
644,FICARAZZI,FICARAZZI,,FICARAZZI,38.086558,13.463252
1317,FIDENZA,FIDENZA,,FIDENZA,44.867759,10.06345
3415,FIESOLE CALDINE,FIESOLE CALDINE,,FIESOLE CALDINE,43.830404,11.307944
1319,FIGLINE VALDARNO,FIGLINE VALDARNO,,FIGLINE VALDARNO,43.621818,11.473561
1320,FILATTIERA,FILATTIERA,,FILATTIERA,44.331481,9.933538
1322,FILIANO,FILIANO,,FILIANO,40.837194,15.752319
238,FINALE LIGURE MARINA,FINALE LIGURE MARINA,,FINALE LIGURE MARINA,44.169243,8.340407
1324,FIORENZUOLA,FIORENZUOLA,,FIORENZUOLA,44.929021,9.916827
1312,FIRENZE CAMPO MARTE,FIRENZE CAMPO MARTE,FIRENZE CAMPO DI MARTE,FIRENZE CAMPO DI MARTE,43.777574,11.27659
1314,FIRENZE CASTELLO,FIRENZE CASTELLO,,FIRENZE CASTELLO,43.8195,11.218313
1315,FIRENZE RIFREDI,FIRENZE RIFREDI,,FIRENZE RIFREDI,43.800137,11.236408
3369,FIRENZE ROVEZZANO,FIRENZE ROVEZZANO,,FIRENZE ROVEZZANO,43.768855,11.308699
3412,S.MARCO VECCHIO,SAN MARCO VECCHIO,FIRENZE SAN MARCO VECCHIO,FIRENZE SAN MARCO VECCHIO,43.791,11.2677
1325,FIRENZE SANTA MARIA NOVELLA,FIRENZE SANTA MARIA NOVELLA,,FIRENZE SANTA MARIA NOVELLA,43.77681,11.247806
1316,FIRENZE STATUTO,FIRENZE STATUTO,,FIRENZE STATUTO,43.787319,11.249703
1326,FISCIANO,FISCIANO,,FISCIANO,40.761082,14.77565
3151,FIUMARA GAZZI,FIUMARA GAZZI,,FIUMARA GAZZI,38.169097,15.550214
63,FIUMEFREDDO BRUZIO,FIUMEFREDDO BRUZIO,,FIUMEFREDDO BRUZIO,39.245501,16.058977
1328,FIUMEFREDDO DI SICILIA,FIUMEFREDDO DI SICILIA,FIUMEFREDDO SICILIA,FIUMEFREDDO SICILIA,37.79519,15.205649
1329,FIUMELATTE,FIUMELATTE,,FIUMELATTE,45.9991,9.29277
1330,FIUMETORTO,FIUMETORTO,,FIUMETORTO,37.9666,13.7749
1327,FIUMICINO AEROPORTO,FIUMICINO AEROPORTO,FIUMICINO,FIUMICINO,41.7729,12.2356
1332,FIVIZZANO-GASSANO,FIVIZZANO GASSANO,,FIVIZZANO GASSANO,44.20013,10.105169
1333,FIVIZZANO ROMETTA-SOLIERA,FIVIZZANO ROMETTA SOLIERA,,FIVIZZANO ROMETTA SOLIERA,44.2017,10.0594
1334,FOGGIA,FOGGIA,,FOGGIA,41.465944,15.555886
1336,FOLIGNO,FOLIGNO,,FOLIGNO,42.954297,12.711043
1337,FOLLONICA,FOLLONICA,,FOLLONICA,42.926602,10.755584
1338,FONDI-SPERLONGA,FONDI SPERLONGA,,FONDI SPERLONGA,41.337623,13.424913
1342,FONTANAFREDDA,FONTANAFREDDA,,FONTANAFREDDA,45.967751,12.575144
1344,FONTANETTO PO,FONTANETTO PO,,FONTANETTO PO,45.191227,8.188921
1345,FONTANIVA,FONTANIVA,,FONTANIVA,45.634791,11.749027
1346,FONTECCHIO,FONTECCHIO,,FONTECCHIO,42.225326,13.598755
1348,FORENZA,FORENZA,,FORENZA,40.866849,15.725378
1349,FORGARIA BAGNI ANDUINS,FORGARIA BAGNI ANDUINS,,FORGARIA BAGNI ANDUINS,46.201767,12.960512
1351,FORLIMPOPOLI-BERTINORO,FORLIMPOPOLI BERTINORO,,FORLIMPOPOLI BERTINORO,44.194179,12.128147
1350,FORLI',FORLI,,FORLI,44.224284,12.054831
1352,FORMIA-GAETA,FORMIA GAETA,FORMIA,FORMIA,41.258833,13.606207
1353,FORNACI DI BARGA,FORNACI DI BARGA,,FORNACI DI BARGA,44.045228,10.473349
1354,FORNOVO,FORNOVO,,FORNOVO,44.69344,10.102275
1355,FORTE DEI MARMI-SERAVEZZA-QUERCETA,FORTE DEI MARMI SERAVEZZA QUERCETA,,FORTE DEI MARMI SERAVEZZA QUERCETA,43.977746,10.199475
1356,FORTEZZA,FORTEZZA,FORTEZZA FRANZENSFESTE,FORTEZZA FRANZENSFESTE,46.788718,11.61008
1357,FOSCIANDORA-CESERANA,FOSCIANDORA CESERANA,,FOSCIANDORA CESERANA,44.118787,10.443973
1360,FOSSALTA DI PIAVE,FOSSALTA DI PIAVE,,FOSSALTA DI PIAVE,45.624085,12.500426
1362,FOSSANO,FOSSANO,,FOSSANO,44.550584,7.717913
1363,FOSSATO DI VICO GUBBIO,FOSSATO DI VICO GUBBIO,,FOSSATO DI VICO GUBBIO,43.283932,12.756987
1364,FRAGNETO MONFORTE,FRAGNETO MONFORTE,,FRAGNETO MONFORTE,41.247318,14.764863
239,FRAMURA,FRAMURA,,FRAMURA,44.201901,9.555146
64,FRANCAVILLA ANGITOLA-FILADELFIA,FRANCAVILLA ANGITOLA FILADELFIA,,FRANCAVILLA ANGITOLA FILADELFIA,38.7781,16.2153
1366,FRANCAVILLA FONTANA,FRANCAVILLA FONTANA,,FRANCAVILLA FONTANA,40.523282,17.584752
1367,FRANCAVILLA AL MARE,FRANCAVILLA AL MARE,,FRANCAVILLA AL MARE,42.421327,14.287958
1370,FRASCATI,FRASCATI,,FRASCATI,41.806896,12.677909
1371,FRASSO TELESINO-DUGENTA,FRASSO TELESINO DUGENTA,,FRASSO TELESINO DUGENTA,41.13711,14.459355
1372,FRATTA,FRATTA,,FRATTA,45.038824,11.642289
5446,FRATTA TODINA,FRATTA TODINA,FRATTA TODINA MONTECASTELLO VIBIO,FRATTA TODINA MONTECASTELLO VIBIO,42.849336,12.385154
1373,FRATTAMAGGIORE-GRUMO,FRATTAMAGGIORE GRUMO,,FRATTAMAGGIORE GRUMO,40.94021,14.263606
1375,FRATTE,FRATTE,,FRATTE,40.6994,14.7756
1376,FRATTE CENTRO,FRATTE CENTRO,,FRATTE CENTRO,45.5859,11.9065
1377,FROSINONE,FROSINONE,,FROSINONE,41.62526,13.328593
240,FRUGAROLO BOSCOMARENGO,FRUGAROLO BOSCOMARENGO,,FRUGAROLO BOSCOMARENGO,44.841816,8.682599
3518,FUNO CENTERGROSS,FUNO CENTERGROSS,,FUNO CENTERGROSS,44.593345,11.370922
1381,FURCI,FURCI,,FURCI,37.963028,15.382071
65,FUSCALDO,FUSCALDO,,FUSCALDO,39.409266,16.011505
66,PM GABELLA GRANDE,PM GABELLA GRANDE,GABELLA GRANDE,GABELLA GRANDE,39.146389,17.109722
1386,GAGGIANO,GAGGIANO,,GAGGIANO,45.4087,9.03113
3162,GAGGIO PORTA EST,GAGGIO PORTA EST,,GAGGIO PORTA EST,45.545222,12.3211
1388,GAGLIOLE,GAGLIOLE,,GAGLIOLE,43.220234,13.074612
1389,GAIBANELLA,GAIBANELLA,,GAIBANELLA,44.778281,11.670901
1390,GAIFANA,GAIFANA,,GAIFANA,43.181877,12.78444
1391,GALATI,GALATI,,GALATI,38.1046,15.5054
1393,GALLARATE,GALLARATE,,GALLARATE,45.660455,8.79883
1396,GALLESE IN TEVERINA,GALLESE IN TEVERINA,GALLESE TEVERINA,GALLESE TEVERINA,42.380884,12.439812
1397,GALLIERA,GALLIERA,,GALLIERA,44.737676,11.44138
1398,GALLIERA VENETA TOMBOLO,GALLIERA VENETA TOMBOLO,,GALLIERA VENETA TOMBOLO,45.652787,11.827718
1401,GAMBETTOLA,GAMBETTOLA,,GAMBETTOLA,44.116746,12.327527
1402,GAMBOLO'-REMONDO',GAMBOLO REMONDO,,GAMBOLO REMONDO,45.235556,8.797222
1404,GARBAGNA,GARBAGNA,,GARBAGNA,45.385691,8.666158
1405,GARESSIO,GARESSIO,,GARESSIO,44.199167,8.015278
1407,GARLASCO,GARLASCO,,GARLASCO,45.1989,8.92679
1408,GATTEO A MARE,GATTEO A MARE,,GATTEO A MARE,44.170556,12.432333
1409,GATTINARA,GATTINARA,,GATTINARA,45.6114,8.36467
1411,GAVORRANO,GAVORRANO,,GAVORRANO,42.948041,10.933696
1413,GAZZADA SCHIANNO MORAZZONE,GAZZADA SCHIANNO MORAZZONE,,GAZZADA SCHIANNO MORAZZONE,45.7787,8.82469
1414,GAZZO DI BIGARELLO,GAZZO DI BIGARELLO,,GAZZO DI BIGARELLO,45.176691,10.894027
1415,GAZZO PIEVE S.GIACOMO,GAZZO PIEVE SAN GIACOMO,,GAZZO PIEVE SAN GIACOMO,45.1372,10.1899
1416,GELA,GELA,,GELA,37.072988,14.259255
1417,GELA-ANIC,GELA ANIC,,GELA ANIC,37.045013,14.299176
1419,GEMONA DEL FRIULI,GEMONA DEL FRIULI,,GEMONA DEL FRIULI,46.27209,13.127576
1420,GENGA S.VITTORE TERME,GENGA SAN VITTORE TERME,,GENGA SAN VITTORE TERME,43.403056,12.976944
242,GENOVA ACQUASANTA,GENOVA ACQUASANTA,,GENOVA ACQUASANTA,44.458714,8.773256
243,GENOVA BOLZANETO,GENOVA BOLZANETO,,GENOVA BOLZANETO,44.459271,8.900147
244,GENOVA BORZOLI,GENOVA BORZOLI,,GENOVA BORZOLI,44.43474,8.866689
245,GENOVA BRIGNOLE,GENOVA BRIGNOLE,,GENOVA BRIGNOLE,44.406999,8.947197
248,GENOVA CORNIGLIANO,GENOVA CORNIGLIANO,,GENOVA CORNIGLIANO,44.414766,8.865017
249,GENOVA COSTA DI SESTRI PONENTE,GENOVA COSTA DI SESTRI PONENTE,,GENOVA COSTA DI SESTRI PONENTE,44.433868,8.84667
251,GENOVA GRANARA,GENOVA GRANARA,,GENOVA GRANARA,44.442048,8.823496
254,GENOVA NERVI,GENOVA NERVI,,GENOVA NERVI,44.381155,9.039957
256,GENOVA PEGLI,GENOVA PEGLI,,GENOVA PEGLI,44.426236,8.816871
257,GENOVA PIAZZA PRINCIPE,GENOVA PIAZZA PRINCIPE,,GENOVA PIAZZA PRINCIPE,44.417507,8.922072
255,GENOVA PIAZZA PRINCIPE SOTTERRANEA,GENOVA PIAZZA PRINCIPE SOTTERRANEA,,GENOVA PIAZZA PRINCIPE SOTTERRANEA,44.415548,8.919591
258,GENOVA PONTEDECIMO,GENOVA PONTEDECIMO,,GENOVA PONTEDECIMO,44.494365,8.905784
259,GENOVA PRA,GENOVA PRA,,GENOVA PRA,44.425391,8.789247
260,GENOVA QUARTO DEI MILLE,GENOVA QUARTO DEI MILLE,,GENOVA QUARTO DEI MILLE,44.38858,8.995793
261,GENOVA QUINTO AL MARE,GENOVA QUINTO AL MARE,,GENOVA QUINTO AL MARE,44.385,9.020556
262,GENOVA RIVAROLO,GENOVA RIVAROLO,,GENOVA RIVAROLO,44.436205,8.890942
263,GENOVA SAMPIERDARENA,GENOVA SAMPIERDARENA,,GENOVA SAMPIERDARENA,44.412869,8.887248
204,GENOVA S.BIAGIO,GENOVA SAN BIAGIO,,GENOVA SAN BIAGIO,44.482805,8.899779
266,GENOVA SESTRI PONENTE AEROPORTO,GENOVA SESTRI PONENTE AEROPORTO,GENOVA SESTRI PONENTE,GENOVA SESTRI PONENTE,44.422326,8.847956
267,GENOVA STURLA,GENOVA STURLA,,GENOVA STURLA,44.397875,8.981473
269,GENOVA VESIMA,GENOVA VESIMA,,GENOVA VESIMA,44.4164,8.71417
203,GENOVA VIA DI FRANCIA,GENOVA VIA DI FRANCIA,,GENOVA VIA DI FRANCIA,44.409426,8.901244
270,GENOVA VOLTRI,GENOVA VOLTRI,,GENOVA VOLTRI,44.428456,8.758351
5045,GERMAGNANO,GERMAGNANO,,GERMAGNANO,45.2627,7.47041
1425,GHEDI,GHEDI,,GHEDI,45.4094,10.2802
1426,GHEMME,GHEMME,,GHEMME,45.595742,8.417813
1427,GHISLARENGO,GHISLARENGO,,GHISLARENGO,45.526147,8.379222
1428,GHIVIZZANO-COREGLIA,GHIVIZZANO COREGLIA,,GHIVIZZANO COREGLIA,44.02743,10.510691
1430,GIAMPILIERI,GIAMPILIERI,,GIAMPILIERI,38.063635,15.479586
1431,GIAROLE,GIAROLE,,GIAROLE,45.05602,8.560957
1432,GIARRE RIPOSTO,GIARRE RIPOSTO,,GIARRE RIPOSTO,37.730207,15.193567
1433,GIAVE,GIAVE,,GIAVE,40.456366,8.729757
1434,GINOSA,GINOSA,,GINOSA,40.429308,16.891072
67,GIOIA TAURO,GIOIA TAURO,,GIOIA TAURO,38.42341,15.897369
1435,GIOIA DEL COLLE,GIOIA DEL COLLE,,GIOIA DEL COLLE,40.796841,16.916871
68,GIOIOSA JONICA,GIOIOSA JONICA,,GIOIOSA JONICA,38.300159,16.330775
1436,GIOJOSA MAREA,GIOJOSA MAREA,GIOIOSA MAREA,GIOIOSA MAREA,38.174724,14.894514
1437,GIOVINAZZO,GIOVINAZZO,,GIOVINAZZO,41.181121,16.66947
1438,GIUGLIANO QUALIANO,GIUGLIANO QUALIANO,,GIUGLIANO QUALIANO,40.934907,14.104281
1439,GIULIANOVA,GIULIANOVA,,GIULIANOVA,42.751806,13.96565
69,GIZZERIA LIDO,GIZZERIA LIDO,,GIZZERIA LIDO,38.9332,16.2125
1442,GLORIE,GLORIE,,GLORIE,44.4833,12.0756
1443,GODO,GODO,,GODO,44.389434,12.071461
1383,GOLFO ARANCI,GOLFO ARANCI,,GOLFO ARANCI,40.994406,9.628067
1444,GONZAGA-REGGIOLO,GONZAGA REGGIOLO,,GONZAGA REGGIOLO,44.939232,10.815191
3408,GORGO AL MONTICANO,GORGO AL MONTICANO,,GORGO AL MONTICANO,45.784488,12.554442
1445,GORIANO SICOLI,GORIANO SICOLI,,GORIANO SICOLI,42.082811,13.783807
1446,GORIZIA CENTRALE,GORIZIA CENTRALE,,GORIZIA CENTRALE,45.933305,13.606935
1447,GOZZANO,GOZZANO,,GOZZANO,45.744333,8.440843
1451,GRAGNOLA,GRAGNOLA,,GRAGNOLA,44.191294,10.109187
1452,GRAMMICHELE,GRAMMICHELE,,GRAMMICHELE,37.205354,14.639544
1453,GRANAIOLO,GRANAIOLO,,GRANAIOLO,43.652606,10.944897
1454,GRANAROLO FAENTINO,GRANAROLO FAENTINO,,GRANAROLO FAENTINO,44.35719,11.937495
1456,GRASSANO-GARAGUSO-TRICARICO,GRASSANO GARAGUSO TRICARICO,,GRASSANO GARAGUSO TRICARICO,40.593227,16.241089
1457,GRAVELLONA TOCE,GRAVELLONA TOCE,,GRAVELLONA TOCE,45.934105,8.428331
1458,GRAVINA IN PUGLIA,GRAVINA IN PUGLIA,,GRAVINA IN PUGLIA,40.825948,16.417907
1459,GRECCIO,GRECCIO,,GRECCIO,42.462812,12.777006
1460,GRICIGNANO-TEVEROLA,GRICIGNANO TEVEROLA,,GRICIGNANO TEVEROLA,40.998919,14.241529
1462,GRIGNASCO,GRIGNASCO,,GRIGNASCO,45.683126,8.333171
1463,GRIGNO,GRIGNO,,GRIGNO,46.015052,11.62476
1464,GRISIGNANO DI ZOCCO,GRISIGNANO DI ZOCCO,,GRISIGNANO DI ZOCCO,45.486433,11.710769
70,GRISOLIA S.MARIA,GRISOLIA SAN MARIA,GRISOLIA SANTA MARIA,GRISOLIA SANTA MARIA,39.7398,15.8212
1465,GRIZZANA,GRIZZANA,,GRIZZANA,44.258866,11.181313
1467,GROPELLO CAIROLI,GROPELLO CAIROLI,,GROPELLO CAIROLI,45.1732,8.99172
1468,GROSSETO,GROSSETO,,GROSSETO,42.767268,11.10655
1469,GROTTAGLIE,GROTTAGLIE,,GROTTAGLIE,40.529098,17.424402
1470,GROTTAMMARE,GROTTAMMARE,,GROTTAMMARE,42.993733,13.870346
1471,GROTTE,GROTTE,,GROTTE,37.409841,13.702697
1472,GROTTE S.STEFANO,GROTTE SAN STEFANO,,GROTTE SAN STEFANO,42.515138,12.169191
3166,GRUGLIASCO,GRUGLIASCO,,GRUGLIASCO,45.068273,7.599183
1473,GRUMELLO DEL MONTE,GRUMELLO DEL MONTE,,GRUMELLO DEL MONTE,45.634305,9.862676
1474,GRUMO APPULA,GRUMO APPULA,,GRUMO APPULA,41.009095,16.70629
1475,GUALDO TADINO,GUALDO TADINO,,GUALDO TADINO,43.233493,12.7671
71,GUARDAVALLE,GUARDAVALLE,,GUARDAVALLE,38.480249,16.579075
72,GUARDIA PIEMONTESE TERME,GUARDIA PIEMONTESE TERME,,GUARDIA PIEMONTESE TERME,39.4643,15.9795
1384,GUARDIA MANGANO S.VENERINA,GUARDIA MANGANO SAN VENERINA,GUARDIA MANGANO SANTA VENERINA,GUARDIA MANGANO SANTA VENERINA,37.661667,15.169167
1481,GUIDONIA-MONTECELIO-S.ANGELO,GUIDONIA MONTECELIO SAN ANGELO,GUIDONIA MONTECELIO SANT ANGELO,GUIDONIA MONTECELIO SANT ANGELO,41.9936,12.7254
1482,HONE-BARD,HONE BARD,,HONE BARD,45.613873,7.741492
1483,IGEA MARINA,IGEA MARINA,,IGEA MARINA,44.130653,12.482852
1484,IGLESIAS,IGLESIAS,,IGLESIAS,39.310826,8.539203
1485,IL NETO,IL NETO,,IL NETO,43.839726,11.182733
1487,IMOLA,IMOLA,,IMOLA,44.359365,11.718787
4501,IMPERIA,IMPERIA,,IMPERIA,43.896875,8.03134
1488,INCISA,INCISA,,INCISA,43.656112,11.452679
1489,INCISA SCAPACCINO,INCISA SCAPACCINO,,INCISA SCAPACCINO,44.8007,8.38759
1490,INCORONATA,INCORONATA,,INCORONATA,41.408063,15.650651
1492,INDUNO OLONA,INDUNO OLONA,,INDUNO OLONA,45.8464,8.83832
1497,ISERNIA,ISERNIA,,ISERNIA,41.597133,14.235587
73,PM ISOLA CAPO RIZZUTO,PM ISOLA CAPO RIZZUTO,ISOLA CAPO RIZZUTO,ISOLA CAPO RIZZUTO,39.043056,17.071389
1502,ISOLA LIRI,ISOLA LIRI,,ISOLA LIRI,41.680157,13.580255
274,ISOLA DEL CANTONE,ISOLA DEL CANTONE,,ISOLA DEL CANTONE,44.645842,8.957346
1501,ISOLA DELLA SCALA,ISOLA DELLA SCALA,,ISOLA DELLA SCALA,45.269316,11.013466
1500,ISOLA DELLE FEMMINE,ISOLA DELLE FEMMINE,,ISOLA DELLE FEMMINE,38.194725,13.250261
1499,ISOLA D`ASTI,ISOLA D ASTI,,ISOLA D ASTI,44.830278,8.175
1504,ISPICA,ISPICA,,ISPICA,36.778043,14.914362
1505,PM ISPRA,PM ISPRA,ISPRA,ISPRA,45.811546,8.620987
1506,ISTRANA,ISTRANA,,ISTRANA,45.676528,12.10277
1507,ITRI,ITRI,,ITRI,41.271328,13.54553
1508,IVREA,IVREA,,IVREA,45.461461,7.876393
1509,JESI,JESI,,JESI,43.520384,13.251969
74,JOPPOLO,JOPPOLO,,JOPPOLO,38.580767,15.897144
4043,LA RUSTICA CITTA',LA RUSTICA CITTA,,LA RUSTICA CITTA,41.910092,12.609501
1516,LA SALLE,LA SALLE,,LA SALLE,45.744702,7.061889
275,LA SPEZIA CENTRALE,LA SPEZIA CENTRALE,,LA SPEZIA CENTRALE,44.111685,9.813676
1517,LA SPEZIA MIGLIARINA,LA SPEZIA MIGLIARINA,,LA SPEZIA MIGLIARINA,44.123309,9.839844
1519,LA STORTA,LA STORTA,LA STORTA FORMELLO,LA STORTA FORMELLO,42.001667,12.381389
1521,LABRO MOGGIO,LABRO MOGGIO,,LABRO MOGGIO,42.505906,12.746128
1071,LADISPOLI-CERVETERI,LADISPOLI CERVETERI,,LADISPOLI CERVETERI,41.9534,12.0815
276,LAIGUEGLIA,LAIGUEGLIA,,LAIGUEGLIA,43.981216,8.15869
1525,LAIVES,LAIVES,LAIVES LEIFERS,LAIVES LEIFERS,46.434167,11.323333
1526,LAMA,LAMA,,LAMA,45.043687,11.913296
1527,LAMA DI RENO,LAMA DI RENO,,LAMA DI RENO,44.3629,11.2145
1528,LAMBRINIA,LAMBRINIA,,LAMBRINIA,45.1644,9.52744
75,LAMEZIA TERME CENTRALE,LAMEZIA TERME CENTRALE,,LAMEZIA TERME CENTRALE,38.921161,16.25602
76,LAMEZIA TERME NICASTRO,LAMEZIA TERME NICASTRO,,LAMEZIA TERME NICASTRO,38.967078,16.320032
77,LAMEZIA TERME SAMBIASE,LAMEZIA TERME SAMBIASE,,LAMEZIA TERME SAMBIASE,38.960174,16.284993
1529,LANA-POSTAL,LANA POSTAL,LANA POSTAL LANA BURGSTALL,LANA POSTAL LANA BURGSTALL,46.607828,11.182661
1530,LANCENIGO,LANCENIGO,,LANCENIGO,45.710111,12.265745
1531,LANUVIO,LANUVIO,,LANUVIO,41.673748,12.689874
1532,LANZARA FIMIANI,LANZARA FIMIANI,,LANZARA FIMIANI,40.769676,14.681191
5044,LANZO TORINESE,LANZO TORINESE,,LANZO TORINESE,45.272682,7.480145
1534,LARINO,LARINO,,LARINO,41.799318,14.91883
4031,LASTRA A SIGNA,LASTRA A SIGNA,,LASTRA A SIGNA,43.769232,11.102388
1537,LATERINA,LATERINA,,LATERINA,43.496482,11.660609
1538,LATIANO,LATIANO,,LATIANO,40.557953,17.717711
1539,LATINA,LATINA,,LATINA,41.538182,12.946291
1540,LATISANA LIGNANO-BIBIONE,LATISANA LIGNANO BIBIONE,,LATISANA LIGNANO BIBIONE,45.777773,13.001188
1541,LAURIANO,LAURIANO,,LAURIANO,45.160556,7.998333
277,LAVAGNA,LAVAGNA,,LAVAGNA,44.305637,9.346363
1542,LAVENO MOMBELLO,LAVENO MOMBELLO,,LAVENO MOMBELLO,45.900179,8.623774
1543,LAVEZZOLA,LAVEZZOLA,,LAVEZZOLA,44.559312,11.880341
1545,LAVIS,LAVIS,,LAVIS,46.148309,11.095906
3449,LE CURE,LE CURE,,LE CURE,43.786618,11.268212
3534,LE PIAGGE,LE PIAGGE,,LE PIAGGE,43.7899,11.1715
1549,LECCE,LECCE,LECCE CITTA,LECCE CITTA,40.345799,18.165815
1550,LECCO,LECCO,,LECCO,45.856465,9.393556
1551,LECCO MAGGIANICO,LECCO MAGGIANICO,,LECCO MAGGIANICO,45.8309,9.41198
1552,LEGGIUNO MONVALLE,LEGGIUNO MONVALLE,,LEGGIUNO MONVALLE,45.86745,8.629087
1553,LEGNAGO,LEGNAGO,,LEGNAGO,45.18907,11.304681
1554,LEGNANO,LEGNANO,,LEGNANO,45.593458,8.910638
1555,LENDINARA,LENDINARA,,LENDINARA,45.081945,11.591239
1557,LENTINI,LENTINI,,LENTINI,37.300963,14.997539
1558,LENTINI DIRAMAZIONE,LENTINI DIRAMAZIONE,,LENTINI DIRAMAZIONE,37.34003,14.981485
2154,LEONFORTE-PIRATO,LEONFORTE PIRATO,,LEONFORTE PIRATO,37.606525,14.376124
1561,LERINO,LERINO,,LERINO,45.518704,11.635646
1562,LESA,LESA,,LESA,45.825785,8.559025
1563,LESEGNO,LESEGNO,,LESEGNO,44.385865,7.942697
1565,LESMO,LESMO,,LESMO,45.6447,9.30925
1566,LETOJANNI,LETOJANNI,,LETOJANNI,37.877469,15.303047
1567,LEVADA,LEVADA,,LEVADA,45.85037,12.006568
278,LEVANTO,LEVANTO,,LEVANTO,44.174107,9.616138
895,LEVATA,LEVATA,,LEVATA,45.123179,10.759494
3595,LEVATE,LEVATE,,LEVATE,45.6252,9.62908
1568,LEVICO TERME,LEVICO TERME,,LEVICO TERME,46.005731,11.304933
1572,LICATA,LICATA,,LICATA,37.105987,13.938278
1573,LIDO DI CLASSE-LIDO DI SAVIO,LIDO DI CLASSE LIDO DI SAVIO,,LIDO DI CLASSE LIDO DI SAVIO,44.3144,12.2926
1575,LIERNA,LIERNA,,LIERNA,45.9151,9.32187
1576,LIMONE,LIMONE,,LIMONE,44.203627,7.577915
1580,LISON,LISON,,LISON,45.751667,12.759167
1581,LISSONE-MUGGIO',LISSONE MUGGIO,,LISSONE MUGGIO,45.606034,9.235337
1582,LIVORNO CENTRALE,LIVORNO CENTRALE,,LIVORNO CENTRALE,43.553986,10.336624
1570,LIVORNO FERRARIS,LIVORNO FERRARIS,,LIVORNO FERRARIS,45.283295,8.073625
279,LOANO,LOANO,,LOANO,44.122455,8.254452
1583,LOCATE TRIULZI,LOCATE TRIULZI,,LOCATE TRIULZI,45.3597,9.22148
78,LOCRI,LOCRI,,LOCRI,38.233325,16.264623
1584,LODI,LODI,,LODI,45.309103,9.497516
1585,LOMELLO,LOMELLO,,LOMELLO,45.1174,8.79912
1586,LONATO,LONATO,,LONATO,45.457155,10.486716
1587,LONGARONE ZOLDO,LONGARONE ZOLDO,,LONGARONE ZOLDO,46.267541,12.301881
79,LONGOBARDI,LONGOBARDI,,LONGOBARDI,39.209643,16.061314
1588,LONIGO,LONIGO,,LONIGO,45.413252,11.34506
1589,LOREO,LOREO,,LOREO,45.059562,12.191665
1590,LORETO,LORETO,,LORETO,43.448353,13.620392
1591,LUCCA,LUCCA,,LUCCA,43.837173,10.506142
1592,LUGO,LUGO,,LUGO,44.4145,11.9145
1593,LUINO,LUINO,,LUINO,45.995483,8.73578
1594,LUMIGNACCO,LUMIGNACCO,,LUMIGNACCO,45.99898,13.250845
1596,PIZZALE-LUNGAVILLA,PIZZALE LUNGAVILLA,LUNGAVILLA,LUNGAVILLA,45.050312,9.069288
1597,LUNGHEZZA,LUNGHEZZA,,LUNGHEZZA,41.923819,12.667553
1600,LUSERNA S. GIOVANNI,LUSERNA SAN GIOVANNI,,LUSERNA SAN GIOVANNI,44.8158,7.24765
1510,L'AQUILA,L AQUILA,,L AQUILA,42.351085,13.384902
1602,MACCARESE-FREGENE,MACCARESE FREGENE,,MACCARESE FREGENE,41.87908,12.237447
1603,MACERATA,MACERATA,,MACERATA,43.293263,13.455503
3206,MACERATA UNIVERSITA',MACERATA UNIVERSITA,,MACERATA UNIVERSITA,43.288155,13.472047
3576,MACERATA FONTESCODELLA,MACERATA FONTESCODELLA,,MACERATA FONTESCODELLA,43.292222,13.440556
1604,MACHERIO-CANONICA,MACHERIO CANONICA,,MACHERIO CANONICA,45.6456,9.28686
1605,MACHERIO SOVICO,MACHERIO SOVICO,,MACHERIO SOVICO,45.6424,9.26689
1606,MACOMER,MACOMER,,MACOMER,40.268644,8.772698
1608,MADDALONI INFERIORE,MADDALONI INFERIORE,,MADDALONI INFERIORE,41.035954,14.380817
3372,MADIGNANO,MADIGNANO,,MADIGNANO,45.3436,9.73043
1614,MADONNA DEL PILONE,MADONNA DEL PILONE,,MADONNA DEL PILONE,44.695472,7.747595
1617,MAERNE DI MARTELLAGO,MAERNE DI MARTELLAGO,,MAERNE DI MARTELLAGO,45.51483,12.150665
1618,MAGENTA,MAGENTA,,MAGENTA,45.468212,8.88074
1619,MAGIONE,MAGIONE,,MAGIONE,43.13756,12.202182
1620,MAGLIANA,MAGLIANA,,MAGLIANA,41.834358,12.431011
1621,MAGLIANO CRAVA MOROZZO,MAGLIANO CRAVA MOROZZO,,MAGLIANO CRAVA MOROZZO,44.445877,7.777431
1623,MAGRE'-CORTACCIA,MAGRE CORTACCIA,MAGRE CORTACCIA MARGREID KURTATSCH,MAGRE CORTACCIA MARGREID KURTATSCH,46.288046,11.232632
1626,MALEO,MALEO,,MALEO,45.1701,9.75527
1628,MALTIGNANO DEL TRONTO,MALTIGNANO DEL TRONTO,MALTIGNANO,MALTIGNANO,42.844908,13.664655
280,MANAROLA,MANAROLA,,MANAROLA,44.10489,9.729249
80,MANDATORICCIO CAMPANA,MANDATORICCIO CAMPANA,,MANDATORICCIO CAMPANA,39.52529,16.893086
1632,MANDELLO DEL LARIO,MANDELLO DEL LARIO,,MANDELLO DEL LARIO,45.9151,9.32187
1634,MANERBIO,MANERBIO,,MANERBIO,45.353995,10.131139
1635,MANFREDONIA,MANFREDONIA,,MANFREDONIA,41.623103,15.908093
1636,MANIAGO,MANIAGO,,MANIAGO,46.170026,12.714558
1637,MANOPPELLO,MANOPPELLO,,MANOPPELLO,42.306013,14.061097
1638,MANTA,MANTA,,MANTA,44.620556,7.494167
1639,MANTOVA,MANTOVA,,MANTOVA,45.158875,10.783405
1744,MANTOVA FRASSINE,MANTOVA FRASSINE,,MANTOVA FRASSINE,45.150542,10.831093
1640,MANZANO,MANZANO,,MANZANO,45.987995,13.375472
1641,MANZIANA-CANALE MONTERANO,MANZIANA CANALE MONTERANO,,MANZIANA CANALE MONTERANO,42.125195,12.134385
1643,MARANO TICINO,MARANO TICINO,,MARANO TICINO,45.629424,8.626471
1642,MARANO VICENTINO,MARANO VICENTINO,,MARANO VICENTINO,45.706875,11.424525
81,MARATEA,MARATEA,,MARATEA,39.994833,15.710141
1644,MARAUSA,MARAUSA,,MARAUSA,37.926469,12.504148
1645,MARCARIA,MARCARIA,,MARCARIA,45.1244,10.5337
2026,MARCELLINA-PALOMBARA,MARCELLINA PALOMBARA,,MARCELLINA PALOMBARA,41.9997,12.7912
82,MARCELLINA-VERBICARO-ORSOMARSO,MARCELLINA VERBICARO ORSOMARSO,,MARCELLINA VERBICARO ORSOMARSO,39.767145,15.822587
83,MARCELLINARA,MARCELLINARA,,MARCELLINARA,38.923056,16.466667
1647,MARCIANISE,MARCIANISE,,MARCIANISE,41.035703,14.287796
554,MARCONI,MARCONI,MARCONIA,MARCONIA,40.316952,16.752207
2313,MAREDOLCE,MAREDOLCE,,MAREDOLCE,38.09783,13.383499
1649,MARGARITA,MARGARITA,,MARGARITA,44.38,7.685556
1650,MARIANOPOLI,MARIANOPOLI,,MARIANOPOLI,37.622984,13.89868
1652,MARINA DI CERVETERI,MARINA DI CERVETERI,,MARINA DI CERVETERI,41.979525,12.047558
85,MARINA DI MARATEA,MARINA DI MARATEA,,MARINA DI MARATEA,39.959146,15.736489
86,MARINA DI S.LORENZO,MARINA DI SAN LORENZO,,MARINA DI SAN LORENZO,37.91979,15.826453
1653,MARINELLA,MARINELLA,,MARINELLA,40.999179,9.554202
1655,MARINO LAZIALE,MARINO LAZIALE,,MARINO LAZIALE,41.768926,12.656056
1654,MARINO DEL TRONTO-FOLIGNANO,MARINO DEL TRONTO FOLIGNANO,,MARINO DEL TRONTO FOLIGNANO,42.844269,13.633013
1658,MARMORE,MARMORE,,MARMORE,42.547652,12.715583
1659,MAROTTA-MONDOLFO,MAROTTA MONDOLFO,,MAROTTA MONDOLFO,43.7697,13.137285
1660,MARRADI-PALAZZUOLO SUL SENIO,MARRADI PALAZZUOLO SUL SENIO,,MARRADI PALAZZUOLO SUL SENIO,44.0797,11.6192
1661,MARRUBIU-TERRALBA-ARBOREA,MARRUBIU TERRALBA ARBOREA,,MARRUBIU TERRALBA ARBOREA,39.752978,8.641141
1662,MARSALA,MARSALA,,MARSALA,37.793536,12.44312
5445,MARSCIANO,MARSCIANO,,MARSCIANO,42.902745,12.349674
1664,MARZABOTTO,MARZABOTTO,,MARZABOTTO,44.341333,11.207355
1666,MARZOCCA,MARZOCCA,,MARZOCCA,43.67712,13.288304
1667,MASCALI,MASCALI,,MASCALI,37.755179,15.190214
1670,MASSA CENTRO,MASSA CENTRO,,MASSA CENTRO,44.023645,10.136362
5452,MASSA MARTANA,MASSA MARTANA,,MASSA MARTANA,42.7262,12.5404
1673,MASSAFRA,MASSAFRA,,MASSAFRA,40.583051,17.107991
1674,MASSALOMBARDA,MASSALOMBARDA,,MASSALOMBARDA,44.448871,11.827871
1675,MASSAROSA BOZZANO,MASSAROSA BOZZANO,,MASSAROSA BOZZANO,43.859089,10.34608
1677,MATELICA,MATELICA,,MATELICA,43.253998,13.015094
5042,MATHI,MATHI,,MATHI,45.2556,7.5411
1679,MATRICE-MONTAGANO-S.GIOVANNI IN GALDO,MATRICE MONTAGANO SAN GIOVANNI IN GALDO,,MATRICE MONTAGANO SAN GIOVANNI IN GALDO,41.62197,14.699655
1681,MAZARA DEL VALLO,MAZARA DEL VALLO,,MAZARA DEL VALLO,37.65272,12.594525
2067,PC MEANA,PC MEANA,MEANA,MEANA,45.123305,7.057898
1682,MEDE,MEDE,,MEDE,45.0951,8.74251
1683,MEDESANO,MEDESANO,,MEDESANO,44.749425,10.139994
1684,MEDUNO,MEDUNO,,MEDUNO,46.200895,12.802661
1686,MEINA,MEINA,,MEINA,45.79434,8.534997
1687,MELANO MARISCHIO,MELANO MARISCHIO,,MELANO MARISCHIO,43.345049,12.860075
282,MELE,MELE,,MELE,44.472764,8.733991
1688,MELEGNANO,MELEGNANO,,MELEGNANO,45.356377,9.319233
1689,MELFI,MELFI,,MELFI,40.989885,15.646902
87,MELITO DI PORTO SALVO,MELITO DI PORTO SALVO,,MELITO DI PORTO SALVO,37.9169,15.7814
1690,MELZO,MELZO,,MELZO,45.5021,9.4192
1691,MEOLO,MEOLO,,MEOLO,45.613693,12.454545
1692,MERANA,MERANA,,MERANA,44.519463,8.29832
1693,MERANO,MERANO,MERANO MAIA BASSA MERAN UNTERMAIS,MERANO MAIA BASSA MERAN UNTERMAIS,46.655687,11.148853
1694,MERANO-MAIA BASSA,MERANO MAIA BASSA,MERANO MAIA BASSA MERAN UNTERMAIS,MERANO MAIA BASSA MERAN UNTERMAIS,46.655687,11.148853
1695,MERCATO S.SEVERINO,MERCATO SAN SEVERINO,,MERCATO SAN SEVERINO,40.783124,14.759631
1696,MERCENASCO,MERCENASCO,,MERCENASCO,45.353635,7.885984
1697,MERGOZZO,MERGOZZO,,MERGOZZO,45.961351,8.441005
1699,MESAGNE,MESAGNE,,MESAGNE,40.563158,17.801967
1700,MESSINA CENTRALE,MESSINA CENTRALE,,MESSINA CENTRALE,38.18454,15.561792
1703,MESTRINO,MESTRINO,,MESTRINO,45.457829,11.77399
88,METAPONTO,METAPONTO,,METAPONTO,40.368577,16.815005
1704,MEZZANI RONDANI,MEZZANI RONDANI,,MEZZANI RONDANI,44.9667,10.3987
1705,MEZZANO,MEZZANO,,MEZZANO,44.462391,12.09877
1706,MEZZOCORONA,MEZZOCORONA,,MEZZOCORONA,46.207269,11.12842
1727,MIGNANO MONTE LUNGO,MIGNANO MONTE LUNGO,,MIGNANO MONTE LUNGO,41.407541,13.986649
1728,MILANO CENTRALE,MILANO CENTRALE,,MILANO CENTRALE,45.487143,9.204828
1708,MILANO CERTOSA,MILANO CERTOSA,,MILANO CERTOSA,45.506497,9.135818
3169,MILANO FORLANINI,MILANO FORLANINI,,MILANO FORLANINI,45.463706,9.237035
1711,MILANO GRECO PIRELLI,MILANO GRECO PIRELLI,,MILANO GRECO PIRELLI,45.512888,9.214491
1712,MILANO LAMBRATE,MILANO LAMBRATE,,MILANO LAMBRATE,45.485066,9.237225
1715,MILANO PORTA GARIBALDI,MILANO PORTA GARIBALDI,,MILANO PORTA GARIBALDI,45.484437,9.187299
1716,MILANO PORTA GENOVA,MILANO PORTA GENOVA,,MILANO PORTA GENOVA,45.4533,9.16957
1718,MILANO PORTA VITTORIA,MILANO PORTA VITTORIA,,MILANO PORTA VITTORIA,45.4595,9.22401
1720,MILANO ROGOREDO,MILANO ROGOREDO,,MILANO ROGOREDO,45.433666,9.239014
58,MILANO ROMOLO,MILANO ROMOLO,,MILANO ROMOLO,45.4433,9.16754
1721,MILANO S.CRISTOFORO,MILANO SAN CRISTOFORO,,MILANO SAN CRISTOFORO,45.4425,9.13017
3251,MILANO TIBALDI UNIVERSITA' BOCCONI,MILANO TIBALDI UNIVERSITA BOCCONI,MILANO TIBALDI,MILANO TIBALDI,45.444734,9.187284
1729,MILAZZO,MILAZZO,,MILAZZO,38.197844,15.258092
89,MILETO,MILETO,,MILETO,38.57736,16.059912
3152,MILI MARINA,MILI MARINA,,MILI MARINA,38.123773,15.517673
1730,MILITELLO,MILITELLO,,MILITELLO,37.275371,14.779839
1735,MINERVINO MURGE,MINERVINO MURGE,,MINERVINO MURGE,41.078294,16.070159
1736,MINTURNO-SCAURI,MINTURNO SCAURI,,MINTURNO SCAURI,41.257583,13.720855
1737,MINUCCIANO-PIEVE-CASOLA,MINUCCIANO PIEVE CASOLA,,MINUCCIANO PIEVE CASOLA,44.194458,10.193839
1738,MIRA MIRANO,MIRA MIRANO,,MIRA MIRANO,45.462989,12.119095
1739,MIRADOLO TERME,MIRADOLO TERME,,MIRADOLO TERME,45.162,9.45005
1741,MIRANDOLA,MIRANDOLA,,MIRANDOLA,44.891679,11.111691
90,MIRTO CROSIA,MIRTO CROSIA,,MIRTO CROSIA,39.60471,16.777296
1743,MISANO ADRIATICO,MISANO ADRIATICO,,MISANO ADRIATICO,43.977279,12.697514
1747,MODENA,MODENA,,MODENA,44.654616,10.929948
1748,MODICA,MODICA,,MODICA,36.85295,14.754166
3197,MODUGNO,MODUGNO,MODUGNO A L,MODUGNO A L,41.086461,16.779385
1753,MOGLIANO VENETO,MOGLIANO VENETO,,MOGLIANO VENETO,45.561906,12.232835
1754,MOIANA,MOIANA,,MOIANA,45.7872,9.25568
5076,MOIMACCO,MOIMACCO,,MOIMACCO,46.0886,13.3732
1756,MOLA DI BARI,MOLA DI BARI,,MOLA DI BARI,41.057376,17.081032
284,MOLARE,MOLARE,,MOLARE,44.622138,8.609967
1757,MOLFETTA,MOLFETTA,,MOLFETTA,41.196124,16.596918
1758,MOLINA-CASTELVECCHIO SUBEQUO,MOLINA CASTELVECCHIO SUBEQUO,,MOLINA CASTELVECCHIO SUBEQUO,42.143353,13.739787
1760,MOLINO DEL PALLONE,MOLINO DEL PALLONE,,MOLINO DEL PALLONE,44.100188,10.961248
1761,MOLTENO,MOLTENO,,MOLTENO,45.7808,9.3017
1762,MOMBALDONE-ROCCAVERANO,MOMBALDONE ROCCAVERANO,,MOMBALDONE ROCCAVERANO,44.569839,8.332622
1763,MOMBARUZZO,MOMBARUZZO,,MOMBARUZZO,44.762415,8.440951
1764,MOMO,MOMO,,MOMO,45.574743,8.556966
91,MONASTERACE-STILO,MONASTERACE STILO,,MONASTERACE STILO,38.437541,16.574634
1765,MONCALIERI,MONCALIERI,,MONCALIERI,44.998004,7.678055
2637,MONCALIERI SANGONE,MONCALIERI SANGONE,,MONCALIERI SANGONE,45.0004,7.66808
1769,MONDOVI`,MONDOVI,,MONDOVI,44.398316,7.816273
285,MONEGLIA,MONEGLIA,,MONEGLIA,44.242407,9.487017
1770,MONFALCONE,MONFALCONE,,MONFALCONE,45.807393,13.543238
1771,MONGARDINO,MONGARDINO,,MONGARDINO,44.841646,8.207591
92,MONGRASSANO-CERVICATI,MONGRASSANO CERVICATI,,MONGRASSANO CERVICATI,39.538819,16.222625
1773,MONGUELFO-VALLE DI CASIES,MONGUELFO VALLE DI CASIES,MONGUELFO CASIES WELSBERG GSIES,MONGUELFO CASIES WELSBERG GSIES,46.752778,12.106944
1774,MONOPOLI,MONOPOLI,,MONOPOLI,40.952148,17.292611
1776,MONSELICE,MONSELICE,,MONSELICE,45.246196,11.747813
1777,MONTAGNANA,MONTAGNANA,,MONTAGNANA,45.228209,11.459907
1778,MONTAGUTO PANNI,MONTAGUTO PANNI,,MONTAGUTO PANNI,41.235389,15.235142
1779,MONTALE AGLIANA,MONTALE AGLIANA,,MONTALE AGLIANA,43.912844,11.008432
1781,MONTALTO DI CASTRO,MONTALTO DI CASTRO,,MONTALTO DI CASTRO,42.334635,11.595167
93,PM MONTALTO ROSE,PM MONTALTO ROSE,MONTALTO ROSE,MONTALTO ROSE,39.406944,16.246944
1784,MONTANARO,MONTANARO,,MONTANARO,45.232739,7.858486
1787,MONTE ANTICO,MONTE ANTICO,,MONTE ANTICO,42.981418,11.359668
94,MONTEGIORDANO,MONTEGIORDANO,MONTE GIORDANO,MONTE GIORDANO,40.040777,16.59779
1790,MONTE S.BIAGIO-TERRACINA MARE,MONTE SAN BIAGIO TERRACINA MARE,MONTE SAN BIAGIO,MONTE SAN BIAGIO,41.345929,13.347039
1791,MONTEBELLO,MONTEBELLO,,MONTEBELLO,45.452445,11.390842
1792,MONTEBELLUNA,MONTEBELLUNA,,MONTEBELLUNA,45.776344,12.053842
1793,MONTECALVO-BUONALBERGO-CASALBORE,MONTECALVO BUONALBERGO CASALBORE,,MONTECALVO BUONALBERGO CASALBORE,41.215793,15.028247
1794,MONTECARLO S.SALVATORE,MONTECARLO SAN SALVATORE,,MONTECARLO SAN SALVATORE,43.850854,10.68536
1795,MONTECAROTTO-CASTELBELLINO,MONTECAROTTO CASTELBELLINO,,MONTECAROTTO CASTELBELLINO,43.499997,13.148216
5455,MONTECASTRILLI,MONTECASTRILLI,,MONTECASTRILLI,42.6569,12.536
1796,MONTECATINI CENTRO,MONTECATINI CENTRO,,MONTECATINI CENTRO,43.881319,10.770371
1797,MONTECATINI TERME-MONSUMMANO,MONTECATINI TERME MONSUMMANO,,MONTECATINI TERME MONSUMMANO,43.879359,10.780754
1799,MONTECHIARO DENICE,MONTECHIARO DENICE,,MONTECHIARO DENICE,44.600825,8.352165
1798,MONTECHIARO D`ASTI,MONTECHIARO D ASTI,,MONTECHIARO D ASTI,44.999444,8.109444
1800,MONTECORVINO,MONTECORVINO,,MONTECORVINO,40.6165,14.947074
1801,MONTECOSARO,MONTECOSARO,,MONTECOSARO,43.289316,13.64638
1803,MONTEFIASCONE,MONTEFIASCONE,,MONTEFIASCONE,42.520262,12.050507
1804,MONTEFREDANE,MONTEFREDANE,,MONTEFREDANE,40.962395,14.810959
1805,MONTEGROSSO,MONTEGROSSO,,MONTEGROSSO,44.818633,8.23909
1808,MONTELLO GORLAGO,MONTELLO GORLAGO,,MONTELLO GORLAGO,45.670397,9.807977
1809,MONTELUPO CAPRAIA,MONTELUPO CAPRAIA,,MONTELUPO CAPRAIA,43.733617,11.019094
1810,MONTEMAGGIORE BELSITO,MONTEMAGGIORE BELSITO,,MONTEMAGGIORE BELSITO,37.858339,13.692162
1812,MONTEMARCIANO,MONTEMARCIANO,,MONTEMARCIANO,43.651267,13.346617
1814,MONTENERO PETACCIATO,MONTENERO PETACCIATO,,MONTENERO PETACCIATO,42.033397,14.850602
95,MONTEPAONE-MONTAURO,MONTEPAONE MONTAURO,,MONTEPAONE MONTAURO,38.728765,16.541931
1816,MONTEPESCALI,MONTEPESCALI,,MONTEPESCALI,42.869385,11.068993
1817,MONTEPRANDONE,MONTEPRANDONE,,MONTEPRANDONE,42.894061,13.849896
1818,MONTEPULCIANO,MONTEPULCIANO,,MONTEPULCIANO,43.13516,11.856789
1819,MONTEREALE VALCELLINA,MONTEREALE VALCELLINA,,MONTEREALE VALCELLINA,46.148165,12.658816
1821,MONTERONI D'ARBIA,MONTERONI D ARBIA,,MONTERONI D ARBIA,43.230257,11.419689
286,MONTEROSSO,MONTEROSSO,,MONTEROSSO,44.145925,9.649111
1823,MONTEROSSO MARCHE,MONTEROSSO MARCHE,,MONTEROSSO MARCHE,43.46252,12.818168
1824,MONTEROTONDO-MENTANA,MONTEROTONDO MENTANA,,MONTEROTONDO MENTANA,42.064167,12.595855
1825,MONTESANTO,MONTESANTO,,MONTESANTO,44.7329,11.7364
1826,MONTESILVANO,MONTESILVANO,,MONTESILVANO,42.516523,14.151367
1827,MONTEU DA PO,MONTEU DA PO,,MONTEU DA PO,45.158056,8.022778
1828,MONTEVARCHI TERRANUOVA,MONTEVARCHI TERRANUOVA,,MONTEVARCHI TERRANUOVA,43.52538,11.564201
1830,MONTI TELTI,MONTI TELTI,,MONTI TELTI,40.82949,9.323108
1832,MONTICELLI D'ONGINA,MONTICELLI D ONGINA,,MONTICELLI D ONGINA,45.075599,9.948811
1833,MONTICELLO D`ALBA,MONTICELLO D ALBA,,MONTICELLO D ALBA,44.703976,7.965008
1834,MONTIGLIO MURISENGO,MONTIGLIO MURISENGO,,MONTIGLIO MURISENGO,45.067778,8.106667
1835,MONTIRONE,MONTIRONE,,MONTIRONE,45.4513,10.2393
1836,PM MONTJOVET,PM MONTJOVET,MONTJOVET,MONTJOVET,45.704444,7.666667
1838,MONTORO SUPERIORE,MONTORO SUPERIORE,,MONTORO SUPERIORE,40.8316,14.8021
1837,MONTORO FORINO,MONTORO FORINO,,MONTORO FORINO,40.820006,14.757438
1839,MONTORSI,MONTORSI,,MONTORSI,41.080556,14.786389
1841,MONZA,MONZA,,MONZA,45.577971,9.272894
1842,MONZA SOBBORGHI,MONZA SOBBORGHI,,MONZA SOBBORGHI,45.582,9.28446
1843,MONZONE-MONTE DEI BIANCHI-ISOLANO,MONZONE MONTE DEI BIANCHI ISOLANO,,MONZONE MONTE DEI BIANCHI ISOLANO,44.165675,10.123813
1844,MONZUNO-VADO,MONZUNO VADO,,MONZUNO VADO,44.322168,11.262207
1845,MORANO SUL PO,MORANO SUL PO,,MORANO SUL PO,45.17066,8.366206
1846,MORBEGNO,MORBEGNO,,MORBEGNO,46.1366,9.56869
1848,MORENGO BARIANO,MORENGO BARIANO,,MORENGO BARIANO,45.5217,9.70316
1851,MORGEX,MORGEX,,MORGEX,45.757215,7.03396
1852,MORI,MORI,,MORI,45.861364,11.002724
1853,MORNAGO CIMBRO,MORNAGO CIMBRO,,MORNAGO CIMBRO,45.729942,8.734197
1854,MOROLO,MOROLO,,MOROLO,41.666997,13.194582
1857,MORROVALLE MONTE S.GIUSTO,MORROVALLE MONTE SAN GIUSTO,,MORROVALLE MONTE SAN GIUSTO,43.279248,13.582799
1858,MORTARA,MORTARA,,MORTARA,45.252093,8.731923
1859,MOSCIANO S.ANGELO,MOSCIANO SAN ANGELO,MOSCIANO SANT ANGELO,MOSCIANO SANT ANGELO,42.706555,13.906429
1860,MOSSA,MOSSA,,MOSSA,45.935093,13.547525
1863,MOTTA S.DAMIANO,MOTTA SAN DAMIANO,,MOTTA SAN DAMIANO,45.1782,9.21992
96,MOTTA S.GIOVANNI LAZZARO,MOTTA SAN GIOVANNI LAZZARO,,MOTTA SAN GIOVANNI LAZZARO,37.976667,15.66
3409,MOTTA DI LIVENZA,MOTTA DI LIVENZA,,MOTTA DI LIVENZA,45.779077,12.607838
2317,MOZIA-BIRGI,MOZIA BIRGI,,MOZIA BIRGI,37.8849,12.4991
1865,MOZZECANE,MOZZECANE,,MOZZECANE,45.306756,10.823632
287,MULINETTI,MULINETTI,,MULINETTI,44.362242,9.13028
1869,MURLO,MURLO,,MURLO,43.114269,11.400434
783,MUSIANO-PIAN DI MACINA,MUSIANO PIAN DI MACINA,,MUSIANO PIAN DI MACINA,44.400922,11.343991
1871,MUSSOTTO,MUSSOTTO,,MUSSOTTO,44.713477,8.016687
1872,MUZZANA DEL TURGNANO,MUZZANA DEL TURGNANO,,MUZZANA DEL TURGNANO,45.816885,13.132655
4020,NAPOLI AFRAGOLA,NAPOLI AFRAGOLA,,NAPOLI AFRAGOLA,40.931389,14.331111
1873,NAPOLI CAMPI FLEGREI,NAPOLI CAMPI FLEGREI,,NAPOLI CAMPI FLEGREI,40.822362,14.19483
1888,NAPOLI CENTRALE,NAPOLI CENTRALE,,NAPOLI CENTRALE,40.852826,14.273072
1874,NAPOLI GIANTURCO,NAPOLI GIANTURCO,,NAPOLI GIANTURCO,40.853743,14.287811
1876,NAPOLI MERGELLINA,NAPOLI MERGELLINA,,NAPOLI MERGELLINA,40.831459,14.218759
1877,NAPOLI MONTESANTO,NAPOLI MONTESANTO,,NAPOLI MONTESANTO,40.847001,14.245268
1878,NAPOLI PIAZZA AMEDEO,NAPOLI PIAZZA AMEDEO,,NAPOLI PIAZZA AMEDEO,40.837473,14.2336
1879,NAPOLI PIAZZA CAVOUR,NAPOLI PIAZZA CAVOUR,,NAPOLI PIAZZA CAVOUR,40.8553,14.255
1880,NAPOLI PIAZZA GARIBALDI,NAPOLI PIAZZA GARIBALDI,,NAPOLI PIAZZA GARIBALDI,40.8526,14.2707
1881,NAPOLI PIAZZA LEOPARDI,NAPOLI PIAZZA LEOPARDI,,NAPOLI PIAZZA LEOPARDI,40.8248,14.2004
1882,NAPOLI S.GIOVANNI BARRA,NAPOLI SAN GIOVANNI BARRA,,NAPOLI SAN GIOVANNI BARRA,40.833158,14.305541
3165,TRACCIA,TRACCIA,NAPOLI TRACCIA,NAPOLI TRACCIA,40.858485,14.297644
1889,NARNI AMELIA,NARNI AMELIA,,NARNI AMELIA,42.5314,12.5194
1893,NAVACCHIO,NAVACCHIO,,NAVACCHIO,43.685992,10.486851
1894,NEIVE,NEIVE,,NEIVE,44.7228,8.12017
1895,NERA MONTORO,NERA MONTORO,,NERA MONTORO,42.497951,12.476632
1896,NETTUNO,NETTUNO,,NETTUNO,41.459571,12.662106
1897,NIBBIA,NIBBIA,,NIBBIA,45.481489,8.557955
1898,NICHELINO,NICHELINO,,NICHELINO,44.991307,7.642062
1899,NICORVO,NICORVO,,NICORVO,45.2756,8.67129
97,NICOTERA,NICOTERA,,NICOTERA,38.54961,15.933739
1901,NISCEMI,NISCEMI,,NISCEMI,37.144992,14.403505
1903,NIZZA MONFERRATO,NIZZA MONFERRATO,,NIZZA MONFERRATO,44.772968,8.361172
1902,NIZZA DI SICILIA,NIZZA DI SICILIA,,NIZZA DI SICILIA,37.986139,15.404328
1904,NOALE-SCORZE',NOALE SCORZE,,NOALE SCORZE,45.553843,12.074895
1905,NOCERA INFERIORE,NOCERA INFERIORE,,NOCERA INFERIORE,40.745234,14.636353
1906,NOCERA INFERIORE MERCATO,NOCERA INFERIORE MERCATO,,NOCERA INFERIORE MERCATO,40.746,14.6497
1907,NOCERA SUPERIORE,NOCERA SUPERIORE,,NOCERA SUPERIORE,40.742636,14.672606
98,NOCERA TIRINESE,NOCERA TIRINESE,NOCERA TERINESE,NOCERA TERINESE,39.013687,16.118225
1908,NOCERA UMBRA,NOCERA UMBRA,,NOCERA UMBRA,43.100561,12.767109
1909,NOCETO,NOCETO,,NOCETO,44.809851,10.147275
1910,NOGARA,NOGARA,,NOGARA,45.180035,11.071024
1911,NOLA,NOLA,,NOLA,40.923445,14.525264
5040,NOLE,NOLE,,NOLE,45.2415,7.5716
1912,NONE,NONE,,NONE,44.938064,7.54007
1913,NOTARESCO,NOTARESCO,,NOTARESCO,42.701476,13.876369
1914,NOTO,NOTO,,NOTO,36.882498,15.074307
99,NOVA SIRI ROTONDELLA,NOVA SIRI ROTONDELLA,,NOVA SIRI ROTONDELLA,40.130381,16.643959
1917,NOVARA,NOVARA,,NOVARA,45.451258,8.625104
1918,NOVARA-MONTALBANO-FURNARI,NOVARA MONTALBANO FURNARI,,NOVARA MONTALBANO FURNARI,38.121678,15.130571
1919,NOVATE-MEZZOLA,NOVATE MEZZOLA,,NOVATE MEZZOLA,46.2166,9.44675
288,NOVI LIGURE,NOVI LIGURE,,NOVI LIGURE,44.762379,8.787468
1922,NOZZANO,NOZZANO,,NOZZANO,43.830026,10.407935
1923,NUCETTO,NUCETTO,,NUCETTO,44.339,8.06125
1925,NUS,NUS,,NUS,45.738886,7.471186
1927,OCCHIOBELLO,OCCHIOBELLO,,OCCHIOBELLO,44.898934,11.62058
3407,ODERZO,ODERZO,,ODERZO,45.775571,12.493621
1929,OFFIDA CASTEL DI LAMA,OFFIDA CASTEL DI LAMA,,OFFIDA CASTEL DI LAMA,42.862014,13.720406
1930,OGGIONO,OGGIONO,,OGGIONO,45.7889,9.33763
1931,OLBIA,OLBIA,,OLBIA,40.924974,9.498658
3231,OLBIA TERRANOVA,OLBIA TERRANOVA,,OLBIA TERRANOVA,40.922622,9.494032
1933,OLCENENGO,OLCENENGO,,OLCENENGO,45.341505,8.310093
1934,OLCIO,OLCIO,,OLCIO,45.938,9.31397
1935,OLEGGIO,OLEGGIO,,OLEGGIO,45.597917,8.63288
1936,OLEVANO,OLEVANO,,OLEVANO,45.212082,8.711868
3426,OLGIATA,OLGIATA,,OLGIATA,42.014619,12.36379
1937,OLGIATE-CALCO-BRIVIO,OLGIATE CALCO BRIVIO,,OLGIATE CALCO BRIVIO,45.7292,9.40368
1939,OLIVERI TINDARI,OLIVERI TINDARI,,OLIVERI TINDARI,38.128357,15.056572
290,OLIVETTA S.MICHELE,OLIVETTA SAN MICHELE,,OLIVETTA SAN MICHELE,43.8784,7.53515
1940,OLMENETA,OLMENETA,,OLMENETA,45.2312,10.0319
3403,OLMI SPERCENIGO,OLMI SPERCENIGO,,OLMI SPERCENIGO,45.679167,12.337778
1941,OMEGNA,OMEGNA,,OMEGNA,45.871971,8.413184
1942,OMEGNA-CRUSINALLO,OMEGNA CRUSINALLO,,OMEGNA CRUSINALLO,45.897474,8.413148
101,OMIGNANO SALENTO,OMIGNANO SALENTO,,OMIGNANO SALENTO,40.252913,15.134193
1944,ORBETELLO-MONTE ARGENTARIO,ORBETELLO MONTE ARGENTARIO,,ORBETELLO MONTE ARGENTARIO,42.450785,11.248768
1946,ORDONA,ORDONA,,ORDONA,41.314989,15.620609
1947,ORIA,ORIA,,ORIA,40.508,17.6464
1948,ORICOLA-PERETO,ORICOLA PERETO,,ORICOLA PERETO,42.067817,13.044291
1949,ORIO LITTA,ORIO LITTA,,ORIO LITTA,45.1667,9.55066
1950,ORIOLO,ORIOLO,,ORIOLO,42.166447,12.138691
1952,ORISTANO,ORISTANO,,ORISTANO,39.901875,8.603989
1953,ORMEA,ORMEA,,ORMEA,44.148056,7.914444
1954,ORNAVASSO,ORNAVASSO,,ORNAVASSO,45.970277,8.415898
3520,ORSA,ORSA,,ORSA,38.1887,13.1239
1955,ORSAGO,ORSAGO,,ORSAGO,45.928405,12.434634
1956,ORSARA DI PUGLIA,ORSARA DI PUGLIA,,ORSARA DI PUGLIA,41.24196,15.277697
1958,ORTANOVA,ORTANOVA,ORTA NOVA,ORTA NOVA,41.349786,15.732947
1957,ORTA MIASINO,ORTA MIASINO,,ORTA MIASINO,45.79585,8.421301
1959,ORTE,ORTE,,ORTE,42.437606,12.409069
1960,ORTONA,ORTONA,,ORTONA,42.3538,14.406598
1961,ORVIETO,ORVIETO,,ORVIETO,42.723931,12.126753
1962,OSCHIRI,OSCHIRI,,OSCHIRI,40.713224,9.10787
1963,OSIMO CASTELFIDARDO,OSIMO CASTELFIDARDO,,OSIMO CASTELFIDARDO,43.497255,13.545952
1964,OSNAGO,OSNAGO,,OSNAGO,45.6786,9.3871
1965,OSOPPO,OSOPPO,,OSOPPO,46.2492,13.0846
1968,OSPEDALETTO EUGANEO,OSPEDALETTO EUGANEO,,OSPEDALETTO EUGANEO,45.221826,11.606566
1969,OSPEDALETTO LODIGIANO,OSPEDALETTO LODIGIANO,,OSPEDALETTO LODIGIANO,45.1693,9.5753
1972,OSPITALE DI CADORE,OSPITALE DI CADORE,,OSPITALE DI CADORE,46.325881,12.318269
1973,OSPITALETTO MANTOVANO,OSPITALETTO MANTOVANO,,OSPITALETTO MANTOVANO,45.1298,10.6043
1974,OSPITALETTO TRAVAGLIATO,OSPITALETTO TRAVAGLIATO,,OSPITALETTO TRAVAGLIATO,45.546,10.0745
1210,OSTERIA NUOVA,OSTERIA NUOVA,,OSTERIA NUOVA,44.584905,11.235068
1976,OSTIA PARMENSE,OSTIA PARMENSE,,OSTIA PARMENSE,44.520164,9.844914
1977,OSTIGLIA,OSTIGLIA,,OSTIGLIA,45.072093,11.141104
1978,OSTUNI,OSTUNI,,OSTUNI,40.752201,17.580779
1979,OTTAVIA,OTTAVIA,OTTAVA,OTTAVA,40.783401,8.471146
1981,OULX CESANA CLAVIERE SESTRIERE,OULX CESANA CLAVIERE SESTRIERE,OULX CESANA CLAVIERE SESTRIERES,OULX CESANA CLAVIERE SESTRIERES,45.038778,6.831125
292,OVADA,OVADA,,OVADA,44.630408,8.632691
1982,OVIGLIO,OVIGLIO,,OVIGLIO,44.8597,8.49524
1983,OZIERI CHILIVANI,OZIERI CHILIVANI,,OZIERI CHILIVANI,40.609506,8.933749
3516,OZZANO DELL'EMILIA,OZZANO DELL EMILIA,OZZANO,OZZANO,44.4508,11.4875
1985,OZZANO MONFERRATO,OZZANO MONFERRATO,,OZZANO MONFERRATO,45.1076,8.37232
1986,OZZANO TARO,OZZANO TARO,,OZZANO TARO,44.718008,10.154736
1994,PABILLONIS,PABILLONIS,,PABILLONIS,39.610894,8.740957
1995,PACE DEL MELA,PACE DEL MELA,,PACE DEL MELA,38.202258,15.312701
1996,PACECO,PACECO,,PACECO,37.991416,12.55082
1998,PADERNO ROBBIATE,PADERNO ROBBIATE,,PADERNO ROBBIATE,45.6784,9.43915
1999,PADIGLIONE,PADIGLIONE,,PADIGLIONE,41.513335,12.629493
2000,PADOVA,PADOVA,,PADOVA,45.417827,11.88062
2004,PADULI SUL CALORE,PADULI SUL CALORE,,PADULI SUL CALORE,41.145833,14.838889
2005,PAESE,PAESE,,PAESE,45.669157,12.16165
2006,PAESE CASTAGNOLE,PAESE CASTAGNOLE,,PAESE CASTAGNOLE,45.691279,12.182675
104,PAESTUM,PAESTUM,,PAESTUM,40.421712,15.014511
2007,PAGANI,PAGANI,,PAGANI,40.746385,14.616828
2008,PAGANICA,PAGANICA,,PAGANICA,42.331039,13.478434
2009,PALAGIANELLO,PALAGIANELLO,,PALAGIANELLO,40.606854,16.984551
2010,PALAGIANO CHIATONA,PALAGIANO CHIATONA,,PALAGIANO CHIATONA,40.5172,17.0591
2011,PALAGIANO MOTTOLA,PALAGIANO MOTTOLA,,PALAGIANO MOTTOLA,40.601614,17.065445
3462,PALAZZO REALE-ORLEANS,PALAZZO REALE ORLEANS,,PALAZZO REALE ORLEANS,38.108923,13.354069
2016,PALAZZOLO VERCELLESE,PALAZZOLO VERCELLESE,,PALAZZOLO VERCELLESE,45.189061,8.232851
2014,PALAZZOLO DELLO STELLA,PALAZZOLO DELLO STELLA,,PALAZZOLO DELLO STELLA,45.8036,13.0838
2015,PALAZZOLO SULL'OGLIO,PALAZZOLO SULL OGLIO,,PALAZZOLO SULL OGLIO,45.602475,9.895154
2017,PALENA,PALENA,,PALENA,41.9186,14.1052
3463,PALERMO AEROPORTO,PALERMO AEROPORTO,,PALERMO AEROPORTO,38.186443,13.105585
1990,PALERMO BRANCACCIO,PALERMO BRANCACCIO,,PALERMO BRANCACCIO,38.092976,13.39256
2018,PALERMO CENTRALE,PALERMO CENTRALE,,PALERMO CENTRALE,38.109417,13.367472
1318,FIERA,FIERA,PALERMO FIERA,PALERMO FIERA,38.141032,13.35361
2332,PALERMO GUADAGNA,PALERMO GUADAGNA,,PALERMO GUADAGNA,38.09826,13.370855
2804,PALERMO LA MALFA,PALERMO LA MALFA,,PALERMO LA MALFA,38.167191,13.309451
2326,LOLLI,LOLLI,PALERMO LOLLI,PALERMO LOLLI,38.122711,13.344876
1992,PALERMO NOTARBARTOLO,PALERMO NOTARBARTOLO,,PALERMO NOTARBARTOLO,38.132313,13.341493
1244,ROCCELLA,ROCCELLA,PALERMO ROCCELLA,PALERMO ROCCELLA,38.087332,13.407715
2531,PALERMO S.LORENZO,PALERMO SAN LORENZO,,PALERMO SAN LORENZO,38.162966,13.31662
3177,PALERMO SFERRACAVALLO,PALERMO SFERRACAVALLO,,PALERMO SFERRACAVALLO,38.19538,13.275593
2871,PALERMO TOMMASO NATALE,PALERMO TOMMASO NATALE,,PALERMO TOMMASO NATALE,38.190149,13.288331
3033,PALERMO VESPRI,PALERMO VESPRI,,PALERMO VESPRI,38.102576,13.361736
2019,PALESTRO,PALESTRO,,PALESTRO,45.3072,8.5344
2020,PALIDANO,PALIDANO,,PALIDANO,44.972178,10.777904
105,PALIZZI,PALIZZI,,PALIZZI,37.918855,15.98647
2021,PALLANZENO,PALLANZENO,,PALLANZENO,46.043539,8.260673
2023,PALMA S.GENNARO,PALMA SAN GENNARO,,PALMA SAN GENNARO,40.865096,14.540006
2024,PALMANOVA,PALMANOVA,,PALMANOVA,45.906759,13.296762
106,PALMI,PALMI,,PALMI,38.36499,15.844413
4042,PALMIRO TOGLIATTI,PALMIRO TOGLIATTI,,PALMIRO TOGLIATTI,41.903315,12.574218
2027,PALOMBINA,PALOMBINA,,PALOMBINA,43.6171,13.4298
2032,PANTIERE DI CASTELBELLINO,PANTIERE DI CASTELBELLINO,,PANTIERE DI CASTELBELLINO,43.500556,13.182778
107,PAOLA,PAOLA,,PAOLA,39.358999,16.033852
5443,PAPIANO,PAPIANO,PAPIANO CASTELLO DELLE FORME,PAPIANO CASTELLO DELLE FORME,42.963891,12.373617
2033,PARABIAGO,PARABIAGO,,PARABIAGO,45.552539,8.946298
3401,PARATICO SARNICO,PARATICO SARNICO,,PARATICO SARNICO,45.6625,9.961389
108,PARGHELIA,PARGHELIA,,PARGHELIA,38.683531,15.925334
2035,PARMA,PARMA,,PARMA,44.810219,10.328569
2036,PARONA LOMELLINA,PARONA LOMELLINA,,PARONA LOMELLINA,45.2803,8.78039
2037,PARTINICO,PARTINICO,,PARTINICO,38.058664,13.109077
2038,PASSIGNANO SUL TRASIMENO,PASSIGNANO SUL TRASIMENO,,PASSIGNANO SUL TRASIMENO,43.188056,12.132778
2040,PATERNO-S.PELINO,PATERNO SAN PELINO,,PATERNO SAN PELINO,42.056944,13.471944
2044,PATTI-S.PIERO PATTI,PATTI SAN PIERO PATTI,,PATTI SAN PIERO PATTI,38.146893,14.97548
2045,PAULILATINO,PAULILATINO,,PAULILATINO,40.077318,8.775791
2046,PAVIA,PAVIA,,PAVIA,45.188971,9.144807
2301,PAVIA PORTA GARIBALDI,PAVIA PORTA GARIBALDI,,PAVIA PORTA GARIBALDI,45.1842,9.1667
2047,PAVONA,PAVONA,,PAVONA,41.724501,12.610562
2080,PEDASO,PEDASO,,PEDASO,43.094574,13.845086
2081,PEDEROBBA CAVASO POSSAGNO,PEDEROBBA CAVASO POSSAGNO,,PEDEROBBA CAVASO POSSAGNO,45.876944,11.965278
2084,PELLEZZANO,PELLEZZANO,,PELLEZZANO,40.722303,14.770229
2085,PENANGO,PENANGO,,PENANGO,45.0323,8.23515
2086,PERAROLO DI CADORE,PERAROLO DI CADORE,,PERAROLO DI CADORE,46.386541,12.352392
2088,PERGINE,PERGINE,,PERGINE,46.062812,11.232093
2089,PERGOLA,PERGOLA,,PERGOLA,43.549455,12.833063
2090,PERI,PERI,,PERI,45.658289,10.900409
2092,PERUGIA,PERUGIA,,PERUGIA,43.103797,12.375584
4084,PERUGIA CAPITINI,PERUGIA CAPITINI,,PERUGIA CAPITINI,43.101999,12.355852
2093,PERUGIA PONTE S.GIOVANNI,PERUGIA PONTE SAN GIOVANNI,,PERUGIA PONTE SAN GIOVANNI,43.09203,12.438185
5459,PERUGIA S.ANNA,PERUGIA SAN ANNA,PERUGIA SANT ANNA,PERUGIA SANT ANNA,43.1064,12.39
2094,PESARO,PESARO,,PESARO,43.905967,12.904752
2096,PESCARA,PESCARA,PESCARA CENTRALE,PESCARA CENTRALE,42.468556,14.204035
2097,PESCARA PORTA NUOVA,PESCARA PORTA NUOVA,,PESCARA PORTA NUOVA,42.457625,14.211846
3057,PESCARA TRIBUNALE,PESCARA TRIBUNALE,,PESCARA TRIBUNALE,42.449616,14.219002
2099,PESCHIERA DEL GARDA,PESCHIERA DEL GARDA,,PESCHIERA DEL GARDA,45.437576,10.701181
2100,PESCIA,PESCIA,,PESCIA,43.886838,10.685774
2101,PESCINA,PESCINA,,PESCINA,42.037694,13.668296
2103,PESCOLANCIANO-CHIAUCI,PESCOLANCIANO CHIAUCI,,PESCOLANCIANO CHIAUCI,41.679088,14.340644
2105,PESSIONE,PESSIONE,,PESSIONE,44.965085,7.841407
2106,PETROSINO STRASATTI,PETROSINO STRASATTI,,PETROSINO STRASATTI,37.725506,12.509424
2107,PETTENASCO,PETTENASCO,,PETTENASCO,45.820508,8.406837
2109,PETTORANO SUL GIZIO,PETTORANO SUL GIZIO,,PETTORANO SUL GIZIO,41.9746,13.9649
2111,PIACENZA,PIACENZA,,PIACENZA,45.052101,9.706363
2112,PIADENA,PIADENA,,PIADENA,45.1275,10.3696
3414,PIAN DEL MUGNONE,PIAN DEL MUGNONE,,PIAN DEL MUGNONE,43.817487,11.295188
3523,PIAN DI VENOLA,PIAN DI VENOLA,,PIAN DI VENOLA,44.333692,11.191821
2116,PIANA,PIANA,,PIANA,44.486527,8.30881
2117,PIANA BELLA DI MONTELIBRETTI,PIANA BELLA DI MONTELIBRETTI,,PIANA BELLA DI MONTELIBRETTI,42.103432,12.632397
2120,PIANEROTTOLO D'ARIANO,PIANEROTTOLO D ARIANO,,PIANEROTTOLO D ARIANO,41.189167,15.145
2121,PIANFEI,PIANFEI,,PIANFEI,44.385278,7.716944
294,PIANO ORIZZONTALE DEI GIOVI,PIANO ORIZZONTALE DEI GIOVI,,PIANO ORIZZONTALE DEI GIOVI,44.530799,8.918926
2123,PIANO D'ORTA BOLOGNANO,PIANO D ORTA BOLOGNANO,,PIANO D ORTA BOLOGNANO,42.254217,13.95133
2125,PIANORO,PIANORO,,PIANORO,44.380427,11.340746
2126,PIANZANO,PIANZANO,,PIANZANO,45.913411,12.388232
2127,PIAZZA AL SERCHIO,PIAZZA AL SERCHIO,,PIAZZA AL SERCHIO,44.182592,10.296541
2129,PICERNO,PICERNO,,PICERNO,40.640159,15.641284
3450,PIEDIMONTE-VILLA S.LUCIA-AQUINO,PIEDIMONTE VILLA SAN LUCIA AQUINO,PIEDIMONTE VILLA SANTA LUCIA,PIEDIMONTE VILLA SANTA LUCIA,41.497739,13.731058
2131,PIEDIMULERA,PIEDIMULERA,,PIEDIMULERA,46.02432,8.261284
5430,PIERANTONIO,PIERANTONIO,,PIERANTONIO,43.263652,12.392364
295,PIETRA LIGURE,PIETRA LIGURE,,PIETRA LIGURE,44.145548,8.277752
296,PIETRABISSARA,PIETRABISSARA,,PIETRABISSARA,44.658059,8.922503
2133,PIETRAGALLA,PIETRAGALLA,,PIETRAGALLA,40.753351,15.792078
2134,PIETRARSA-S.GIORGIO A CREMANO,PIETRARSA SAN GIORGIO A CREMANO,,PIETRARSA SAN GIORGIO A CREMANO,40.8219,14.3215
2135,PIETRASANTA,PIETRASANTA,,PIETRASANTA,43.955956,10.229724
2137,PIETRELCINA,PIETRELCINA,,PIETRELCINA,41.188762,14.832462
2138,PIEVE ALBIGNOLA,PIEVE ALBIGNOLA,,PIEVE ALBIGNOLA,45.1162,8.95968
1749,PIEVE EMANUELE,PIEVE EMANUELE,,PIEVE EMANUELE,45.339236,9.203131
297,PIEVE LIGURE,PIEVE LIGURE,,PIEVE LIGURE,44.372552,9.091024
3350,PIEVE VERGONTE,PIEVE VERGONTE,,PIEVE VERGONTE,46.009722,8.277321
2141,PIEVETTA,PIEVETTA,,PIEVETTA,44.2575,8.021667
2142,PIGNATARO MAGGIORE,PIGNATARO MAGGIORE,,PIGNATARO MAGGIORE,41.173624,14.160797
2143,PINAROLO PO,PINAROLO PO,,PINAROLO PO,45.0733,9.17031
2144,PINEROLO,PINEROLO,,PINEROLO,44.887616,7.337121
29,PINEROLO OLIMPICA,PINEROLO OLIMPICA,,PINEROLO OLIMPICA,44.8913,7.34738
2145,PINETO ATRI,PINETO ATRI,,PINETO ATRI,42.607934,14.06908
2146,PINZANO,PINZANO,,PINZANO,46.179339,12.950489
2147,PIOLTELLO LIMITO,PIOLTELLO LIMITO,,PIOLTELLO LIMITO,45.485732,9.328259
2148,PIOMBINO,PIOMBINO,,PIOMBINO,42.928588,10.544598
2149,PIOMBINO DESE,PIOMBINO DESE,,PIOMBINO DESE,45.609432,12.000653
2150,PIOMBINO MARITTIMA,PIOMBINO MARITTIMA,,PIOMBINO MARITTIMA,42.924876,10.53124
2151,PIONA,PIONA,,PIONA,46.1248,9.35058
2152,PIOPPE DI SALVARO,PIOPPE DI SALVARO,,PIOPPE DI SALVARO,44.310554,11.161582
3439,PIRAINETO,PIRAINETO,,PIRAINETO,38.171982,13.14115
2157,PISA/BINARI PISA S.ROSSORE,PISA BINARI PISA SAN ROSSORE,PISA,PISA,43.710897,10.398817
2156,PISA CENTRALE,PISA CENTRALE,,PISA CENTRALE,43.707971,10.398173
5270,PISCILLE,PISCILLE,,PISCILLE,43.0951,12.4102
2158,PISCINA DI PINEROLO,PISCINA DI PINEROLO,,PISCINA DI PINEROLO,44.921847,7.425683
111,PISCIOTTA PALINURO,PISCIOTTA PALINURO,,PISCIOTTA PALINURO,40.091449,15.24361
2160,PISTICCI,PISTICCI,,PISTICCI,40.420885,16.552224
2161,PISTOIA,PISTOIA,,PISTOIA,43.926732,10.914621
2163,PITECCIO,PITECCIO,,PITECCIO,44.009829,10.901299
2164,PIZZIGHETTONE,PIZZIGHETTONE,PIZZIGHETTONE GERA,PIZZIGHETTONE GERA,45.181667,9.776944
2211,PONTE D'ADDA,PONTE D ADDA,PIZZIGHETTONE PONTE D ADDA,PIZZIGHETTONE PONTE D ADDA,45.184167,9.790556
112,PIZZO,PIZZO,,PIZZO,38.72641,16.150406
2166,PLOAGHE,PLOAGHE,,PLOAGHE,40.661356,8.728067
2186,POCAPAGLIA,POCAPAGLIA,,POCAPAGLIA,44.701692,7.892933
2187,POGGIBONSI-S.GIMIGNANO,POGGIBONSI SAN GIMIGNANO,,POGGIBONSI SAN GIMIGNANO,43.4681,11.1495
2189,POGGIO FIDONI,POGGIO FIDONI,,POGGIO FIDONI,42.395825,12.795344
2190,POGGIO IMPERIALE,POGGIO IMPERIALE,,POGGIO IMPERIALE,41.807454,15.350923
2191,POGGIO MIRTETO,POGGIO MIRTETO,,POGGIO MIRTETO,42.241929,12.633125
2193,POGGIO RUSCO,POGGIO RUSCO,,POGGIO RUSCO,44.981509,11.124879
2188,POGGIO-CAREGGINE-VAGLI,POGGIO CAREGGINE VAGLI,,POGGIO CAREGGINE VAGLI,44.1485,10.3506
2192,POGGIO RENATICO,POGGIO RENATICO,,POGGIO RENATICO,44.767556,11.484007
2195,POGGIRIDENTI-TRESIVIO-PIATEDA,POGGIRIDENTI TRESIVIO PIATEDA,,POGGIRIDENTI TRESIVIO PIATEDA,46.1669,9.9338
2197,POLESELLA,POLESELLA,,POLESELLA,44.960968,11.738563
113,POLICASTRO BUSSENTINO,POLICASTRO BUSSENTINO,,POLICASTRO BUSSENTINO,40.076787,15.528568
114,POLICORO TURSI,POLICORO TURSI,,POLICORO TURSI,40.207275,16.689094
2198,POLIGNANO A MARE,POLIGNANO A MARE,,POLIGNANO A MARE,40.991044,17.218837
2199,POLLENZA,POLLENZA,,POLLENZA,43.241062,13.367112
2200,POLLINA-S.MAURO CASTELVERDE,POLLINA SAN MAURO CASTELVERDE,,POLLINA SAN MAURO CASTELVERDE,38.017853,14.17615
2202,POMEZIA-S.PALOMBA,POMEZIA SAN PALOMBA,POMEZIA SANTA PALOMBA,POMEZIA SANTA PALOMBA,41.7061,12.5737
2203,POMPEI,POMPEI,,POMPEI,40.745989,14.501227
2204,PONT-SAINT-MARTIN,PONT SAINT MARTIN,,PONT SAINT MARTIN,45.589755,7.79504
2205,PONTASSIEVE,PONTASSIEVE,,PONTASSIEVE,43.773907,11.438234
2209,PONTE ALBANITO,PONTE ALBANITO,,PONTE ALBANITO,41.351389,15.532778
2215,PONTE GALERIA,PONTE GALERIA,,PONTE GALERIA,41.818438,12.344724
2217,PONTE GINORI,PONTE GINORI,,PONTE GINORI,43.335071,10.74246
2219,PONTE NELLE ALPI POLPET,PONTE NELLE ALPI POLPET,,PONTE NELLE ALPI POLPET,46.182222,12.276944
5434,PONTE PATTOLI,PONTE PATTOLI,PONTE PATTOLI CIVITELLA,PONTE PATTOLI CIVITELLA,43.176029,12.435648
2222,PONTE S.MARCO-CALCINATO,PONTE SAN MARCO CALCINATO,,PONTE SAN MARCO CALCINATO,45.4739,10.4092
2223,PONTE S.PIETRO,PONTE SAN PIETRO,,PONTE SAN PIETRO,45.699243,9.584271
3153,PONTE S.STEFANO,PONTE SAN STEFANO,PONTE SANTO STEFANO,PONTE SANTO STEFANO,38.096185,15.502805
3154,PONTE SCHIAVO,PONTE SCHIAVO,,PONTE SCHIAVO,38.080616,15.494059
